[{"label":"Ozan","id":"1284","longitude":4.91667,"latitude":46.3833,"avancement":23},{"label":"Cormoranche-sur-Saône","id":"1123","longitude":4.83333,"latitude":46.2333,"avancement":84},{"label":"Plagne","id":"1298","longitude":5.73333,"latitude":46.1833,"avancement":21},{"label":"Tossiat","id":"1422","longitude":5.31667,"latitude":46.1333,"avancement":23},{"label":"Pouillat","id":"1309","longitude":5.43333,"latitude":46.3333,"avancement":41},{"label":"Torcieu","id":"1421","longitude":5.4,"latitude":45.9167,"avancement":8},{"label":"Replonges","id":"1320","longitude":4.88333,"latitude":46.3,"avancement":47},{"label":"Corcelles","id":"1119","longitude":5.58333,"latitude":46.0333,"avancement":71},{"label":"Péron","id":"1288","longitude":5.93333,"latitude":46.2,"avancement":82},{"label":"Relevant","id":"1319","longitude":4.95,"latitude":46.0833,"avancement":13},{"label":"Chaveyriat","id":"1096","longitude":5.06667,"latitude":46.1833,"avancement":7},{"label":"Vaux-en-Bugey","id":"1431","longitude":5.35,"latitude":45.9167,"avancement":43},{"label":"Maillat","id":"1228","longitude":5.55,"latitude":46.1333,"avancement":78},{"label":"Faramans","id":"1156","longitude":5.11667,"latitude":45.9,"avancement":12},{"label":"Béon","id":"1039","longitude":5.75,"latitude":45.8333,"avancement":66},{"label":"Saint-Bernard","id":"1339","longitude":4.73723,"latitude":45.945,"avancement":6},{"label":"Rossillon","id":"1329","longitude":5.6,"latitude":45.8333,"avancement":48},{"label":"Pont-d'Ain","id":"1304","longitude":5.33333,"latitude":46.05,"avancement":5},{"label":"Nantua","id":"1269","longitude":5.61667,"latitude":46.15,"avancement":12},{"label":"Chavannes-sur-Reyssouze","id":"1094","longitude":5,"latitude":46.4333,"avancement":17},{"label":"Neuville-les-Dames","id":"1272","longitude":5,"latitude":46.1667,"avancement":5},{"label":"Flaxieu","id":"1162","longitude":5.73333,"latitude":45.8167,"avancement":33},{"label":"Hotonnes","id":"1187","longitude":5.68333,"latitude":46,"avancement":13},{"label":"Saint-Sorlin-en-Bugey","id":"1386","longitude":5.36667,"latitude":45.8833,"avancement":76},{"label":"Songieu","id":"1409","longitude":5.7,"latitude":45.9667,"avancement":0},{"label":"Virieu-le-Petit","id":"1453","longitude":5.71667,"latitude":45.9,"avancement":83},{"label":"Saint-Denis-en-Bugey","id":"1345","longitude":5.33333,"latitude":45.95,"avancement":10},{"label":"Charnoz-sur-Ain","id":"1088","longitude":5.21667,"latitude":45.8667,"avancement":57},{"label":"Chazey-sur-Ain","id":"1099","longitude":5.25,"latitude":45.9,"avancement":5},{"label":"Marchamp","id":"1233","longitude":5.55,"latitude":45.7833,"avancement":83},{"label":"Culoz","id":"1138","longitude":5.78333,"latitude":45.85,"avancement":29},{"label":"Mantenay-Montlin","id":"1230","longitude":5.08333,"latitude":46.4167,"avancement":69},{"label":"Marboz","id":"1232","longitude":5.25,"latitude":46.3333,"avancement":65},{"label":"Foissiat","id":"1163","longitude":5.18333,"latitude":46.3667,"avancement":37},{"label":"Treffort-Cuisiat","id":"1426","longitude":5.36834,"latitude":46.2714,"avancement":43},{"label":"Izieu","id":"1193","longitude":5.63333,"latitude":45.65,"avancement":60},{"label":"Saint-Étienne-du-Bois","id":"1350","longitude":5.28333,"latitude":46.2833,"avancement":23},{"label":"Hauteville-Lompnes","id":"1185","longitude":5.6,"latitude":45.9667,"avancement":14},{"label":"Saint-Trivier-sur-Moignans","id":"1389","longitude":4.9,"latitude":46.0667,"avancement":32},{"label":"Peyriat","id":"1293","longitude":5.51667,"latitude":46.15,"avancement":28},{"label":"Évosges","id":"1155","longitude":5.5,"latitude":45.9583,"avancement":60},{"label":"Poncin","id":"1303","longitude":5.4,"latitude":46.0833,"avancement":27},{"label":"Crans","id":"1129","longitude":5.21667,"latitude":45.9667,"avancement":92},{"label":"Montréal-la-Cluse","id":"1265","longitude":5.57084,"latitude":46.1867,"avancement":90},{"label":"Cleyzieu","id":"1107","longitude":5.43333,"latitude":45.9,"avancement":14},{"label":"Lompnieu","id":"1221","longitude":5.65,"latitude":45.9667,"avancement":60},{"label":"Villereversure","id":"1447","longitude":5.38333,"latitude":46.1833,"avancement":18},{"label":"Saint-Martin-du-Mont","id":"1374","longitude":5.33333,"latitude":46.1,"avancement":51},{"label":"Saint-Genis-Pouilly","id":"1354","longitude":6.01667,"latitude":46.25,"avancement":27},{"label":"Bolozon","id":"1051","longitude":5.48333,"latitude":46.2,"avancement":76},{"label":"Confrançon","id":"1115","longitude":5.06667,"latitude":46.2667,"avancement":11},{"label":"Lochieu","id":"1218","longitude":5.71667,"latitude":45.9333,"avancement":19},{"label":"Chanoz-Châtenay","id":"1084","longitude":5.03333,"latitude":46.1833,"avancement":37},{"label":"Villebois","id":"1444","longitude":5.43333,"latitude":45.85,"avancement":31},{"label":"Ceignes","id":"1067","longitude":5.5,"latitude":46.1167,"avancement":62},{"label":"Saint-Didier-sur-Chalaronne","id":"1348","longitude":4.81667,"latitude":46.1667,"avancement":71},{"label":"Revonnas","id":"1321","longitude":5.33333,"latitude":46.1667,"avancement":37},{"label":"Bourg-Saint-Christophe","id":"1054","longitude":5.16667,"latitude":45.8833,"avancement":5},{"label":"Condeissiat","id":"1113","longitude":5.08333,"latitude":46.1667,"avancement":46},{"label":"Pirajoux","id":"1296","longitude":5.3,"latitude":46.3833,"avancement":67},{"label":"Chalamont","id":"1074","longitude":5.16667,"latitude":46,"avancement":97},{"label":"Le Plantay","id":"1299","longitude":5.08333,"latitude":46.0167,"avancement":42},{"label":"Versailleux","id":"1434","longitude":5.1,"latitude":45.9833,"avancement":54},{"label":"Montagnat","id":"1254","longitude":5.28333,"latitude":46.1667,"avancement":30},{"label":"Vieu","id":"1442","longitude":5.68333,"latitude":45.9,"avancement":12},{"label":"Saint-André-de-Corcy","id":"1333","longitude":4.95,"latitude":45.9167,"avancement":61},{"label":"Bressolles","id":"1062","longitude":5.1,"latitude":45.8667,"avancement":90},{"label":"Péronnas","id":"1289","longitude":5.2,"latitude":46.1833,"avancement":42},{"label":"Colomieu","id":"1110","longitude":5.61667,"latitude":45.7333,"avancement":57},{"label":"Monthieux","id":"1261","longitude":4.93333,"latitude":45.95,"avancement":66},{"label":"Saint-Jean-sur-Reyssouze","id":"1364","longitude":5.06667,"latitude":46.4,"avancement":84},{"label":"Garnerans","id":"1167","longitude":4.83333,"latitude":46.2,"avancement":75},{"label":"Montrevel-en-Bresse","id":"1266","longitude":5.13333,"latitude":46.3333,"avancement":75},{"label":"Conand","id":"1111","longitude":5.46667,"latitude":45.8833,"avancement":27},{"label":"Challes-la-Montagne","id":"1077","longitude":5.46667,"latitude":46.1333,"avancement":62},{"label":"Mogneneins","id":"1252","longitude":4.81667,"latitude":46.1333,"avancement":43},{"label":"Thoissey","id":"1420","longitude":4.8,"latitude":46.1667,"avancement":82},{"label":"Chaleins","id":"1075","longitude":4.8,"latitude":46.0333,"avancement":67},{"label":"Neuville-sur-Ain","id":"1273","longitude":5.36667,"latitude":46.0833,"avancement":4},{"label":"Thil","id":"1418","longitude":5.01667,"latitude":45.8167,"avancement":46},{"label":"Jujurieux","id":"1199","longitude":5.41667,"latitude":46.0333,"avancement":5},{"label":"Oncieu","id":"1279","longitude":5.46667,"latitude":45.95,"avancement":37},{"label":"Lurcy","id":"1225","longitude":4.76667,"latitude":46.0667,"avancement":64},{"label":"Balan","id":"1027","longitude":5.1,"latitude":45.8333,"avancement":21},{"label":"Ambutrix","id":"1008","longitude":5.33333,"latitude":45.9333,"avancement":61},{"label":"Sainte-Croix","id":"1342","longitude":5.05195,"latitude":45.8942,"avancement":73},{"label":"Blyes","id":"1047","longitude":5.25,"latitude":45.85,"avancement":63},{"label":"Conzieu","id":"1117","longitude":5.6,"latitude":45.7333,"avancement":58},{"label":"Niévroz","id":"1276","longitude":5.06667,"latitude":45.8333,"avancement":63},{"label":"Nurieux-Volognat","id":"1267","longitude":5.52667,"latitude":46.1856,"avancement":24},{"label":"Ambléon","id":"1006","longitude":5.6,"latitude":45.75,"avancement":35},{"label":"Saint-Maurice-de-Gourdans","id":"1378","longitude":5.2,"latitude":45.8167,"avancement":91},{"label":"Chézery-Forens","id":"1104","longitude":5.88333,"latitude":46.2167,"avancement":70},{"label":"Sault-Brénaz","id":"1396","longitude":5.41667,"latitude":45.85,"avancement":80},{"label":"Murs-et-Gélignieux","id":"1268","longitude":5.66667,"latitude":45.6333,"avancement":80},{"label":"Le Petit-Abergement","id":"1292","longitude":5.65,"latitude":46.0333,"avancement":19},{"label":"Cormoz","id":"1124","longitude":5.23333,"latitude":46.45,"avancement":13},{"label":"Saint-Martin-de-Bavel","id":"1372","longitude":5.68333,"latitude":45.85,"avancement":49},{"label":"Saint-Trivier-de-Courtes","id":"1388","longitude":5.08333,"latitude":46.4667,"avancement":89},{"label":"Boyeux-Saint-Jérôme","id":"1056","longitude":5.46667,"latitude":46.0333,"avancement":32},{"label":"Château-Gaillard","id":"1089","longitude":5.3,"latitude":45.9667,"avancement":89},{"label":"Prémeyzel","id":"1310","longitude":5.65,"latitude":45.6833,"avancement":0},{"label":"Arandas","id":"1013","longitude":5.48333,"latitude":45.9,"avancement":86},{"label":"Châtenay","id":"1090","longitude":5.2,"latitude":46.0333,"avancement":92},{"label":"Innimond","id":"1190","longitude":5.56667,"latitude":45.7833,"avancement":38},{"label":"Boz","id":"1057","longitude":4.9,"latitude":46.4,"avancement":35},{"label":"Briord","id":"1064","longitude":5.46667,"latitude":45.7833,"avancement":56},{"label":"Reyrieux","id":"1322","longitude":4.81667,"latitude":45.9333,"avancement":72},{"label":"Matafelon-Granges","id":"1240","longitude":5.56667,"latitude":46.2667,"avancement":72},{"label":"Drom","id":"1150","longitude":5.36667,"latitude":46.2167,"avancement":55},{"label":"Châtillon-en-Michaille","id":"1091","longitude":5.78333,"latitude":46.1333,"avancement":62},{"label":"Polliat","id":"1301","longitude":5.13333,"latitude":46.25,"avancement":14},{"label":"Vesancy","id":"1436","longitude":6.08333,"latitude":46.35,"avancement":40},{"label":"Massieux","id":"1238","longitude":4.83333,"latitude":45.9167,"avancement":4},{"label":"Saint-Cyr-sur-Menthon","id":"1343","longitude":4.98333,"latitude":46.2667,"avancement":11},{"label":"Serrières-sur-Ain","id":"1404","longitude":5.45,"latitude":46.15,"avancement":52},{"label":"Nivollet-Montgriffon","id":"1277","longitude":5.43333,"latitude":45.9833,"avancement":14},{"label":"Izernore","id":"1192","longitude":5.55,"latitude":46.2167,"avancement":93},{"label":"Saint-Nizier-le-Désert","id":"1381","longitude":5.15,"latitude":46.05,"avancement":49},{"label":"Guéreins","id":"1183","longitude":4.78333,"latitude":46.1,"avancement":87},{"label":"Illiat","id":"1188","longitude":4.88333,"latitude":46.1833,"avancement":3},{"label":"La Tranclière","id":"1425","longitude":5.26667,"latitude":46.1167,"avancement":4},{"label":"Saint-Didier-de-Formans","id":"1347","longitude":4.78333,"latitude":45.95,"avancement":74},{"label":"Mérignat","id":"1242","longitude":5.43333,"latitude":46.0667,"avancement":38},{"label":"Saint-Éloi","id":"1349","longitude":5.15,"latitude":45.9333,"avancement":63},{"label":"La Chapelle-du-Châtelard","id":"1085","longitude":5.03333,"latitude":46.0667,"avancement":97},{"label":"Saint-Jean-de-Niost","id":"1361","longitude":5.21667,"latitude":45.8333,"avancement":12},{"label":"Savigneux","id":"1398","longitude":4.85,"latitude":46,"avancement":81},{"label":"Nattages","id":"1271","longitude":5.76667,"latitude":45.7333,"avancement":89},{"label":"Saint-Benoît","id":"1338","longitude":5.58333,"latitude":45.7,"avancement":4},{"label":"Douvres","id":"1149","longitude":5.36667,"latitude":45.9833,"avancement":94},{"label":"Francheleins","id":"1165","longitude":4.8,"latitude":46.0667,"avancement":49},{"label":"Dortan","id":"1148","longitude":5.66667,"latitude":46.3167,"avancement":23},{"label":"Saint-Germain-les-Paroisses","id":"1358","longitude":5.61667,"latitude":45.7667,"avancement":35},{"label":"Miribel","id":"1249","longitude":4.95306,"latitude":45.8245,"avancement":12},{"label":"Lancrans","id":"1205","longitude":5.83333,"latitude":46.1333,"avancement":26},{"label":"Échenevex","id":"1153","longitude":6.03333,"latitude":46.3167,"avancement":69},{"label":"Saint-Jean-sur-Veyle","id":"1365","longitude":4.91667,"latitude":46.25,"avancement":84},{"label":"Billiat","id":"1044","longitude":5.78333,"latitude":46.0667,"avancement":59},{"label":"L'Abergement-de-Varey","id":"1002","longitude":5.41667,"latitude":46,"avancement":30},{"label":"Villeneuve","id":"1446","longitude":4.83667,"latitude":46.0212,"avancement":98},{"label":"Villars-les-Dombes","id":"1443","longitude":5.01667,"latitude":46,"avancement":61},{"label":"Thézillieu","id":"1417","longitude":5.6,"latitude":45.8833,"avancement":26},{"label":"Saint-Étienne-sur-Reyssouze","id":"1352","longitude":5,"latitude":46.4,"avancement":40},{"label":"Souclin","id":"1411","longitude":5.41667,"latitude":45.8667,"avancement":93},{"label":"Saint-Just","id":"1369","longitude":5.28,"latitude":46.1903,"avancement":1},{"label":"Civrieux","id":"1105","longitude":4.88333,"latitude":45.9167,"avancement":4},{"label":"Argis","id":"1017","longitude":5.48333,"latitude":45.9333,"avancement":9},{"label":"Talissieu","id":"1415","longitude":5.71667,"latitude":45.8667,"avancement":22},{"label":"Birieux","id":"1045","longitude":5.03333,"latitude":45.95,"avancement":54},{"label":"Saint-Julien-sur-Veyle","id":"1368","longitude":4.95,"latitude":46.2,"avancement":29},{"label":"Thoiry","id":"1419","longitude":5.97973,"latitude":46.2364,"avancement":58},{"label":"Laiz","id":"1203","longitude":4.88333,"latitude":46.25,"avancement":18},{"label":"Cressin-Rochefort","id":"1133","longitude":5.76667,"latitude":45.7667,"avancement":21},{"label":"Saint-Champ","id":"1341","longitude":5.73333,"latitude":45.7833,"avancement":85},{"label":"Saint-Georges-sur-Renon","id":"1356","longitude":5.03333,"latitude":46.1,"avancement":7},{"label":"Lantenay","id":"1206","longitude":5.53333,"latitude":46.05,"avancement":26},{"label":"Vernoux","id":"1433","longitude":5.11667,"latitude":46.4833,"avancement":91},{"label":"Cormaranche-en-Bugey","id":"1122","longitude":5.6,"latitude":45.95,"avancement":55},{"label":"Sainte-Euphémie","id":"1353","longitude":4.78333,"latitude":45.9667,"avancement":12},{"label":"Beaupont","id":"1029","longitude":5.26667,"latitude":46.4,"avancement":30},{"label":"Brens","id":"1061","longitude":5.69473,"latitude":45.7187,"avancement":48},{"label":"Ramasse","id":"1317","longitude":5.35,"latitude":46.2,"avancement":36},{"label":"Divonne-les-Bains","id":"1143","longitude":6.13333,"latitude":46.3667,"avancement":89},{"label":"Léaz","id":"1209","longitude":5.88333,"latitude":46.1,"avancement":46},{"label":"Villes","id":"1448","longitude":5.78333,"latitude":46.0833,"avancement":76},{"label":"Saint-Julien-sur-Reyssouze","id":"1367","longitude":5.11667,"latitude":46.4,"avancement":2},{"label":"Groslée","id":"1182","longitude":5.56667,"latitude":45.7167,"avancement":23},{"label":"Vandeins","id":"1429","longitude":5.08333,"latitude":46.2167,"avancement":85},{"label":"Verjon","id":"1432","longitude":5.35,"latitude":46.35,"avancement":39},{"label":"Saint-André-sur-Vieux-Jonc","id":"1336","longitude":5.06667,"latitude":46.15,"avancement":65},{"label":"Saint-André-d'Huiriat","id":"1334","longitude":4.91667,"latitude":46.2167,"avancement":82},{"label":"Grilly","id":"1180","longitude":6.11667,"latitude":46.3333,"avancement":89},{"label":"Cessy","id":"1071","longitude":6.06667,"latitude":46.3167,"avancement":94},{"label":"Ordonnaz","id":"1280","longitude":5.53333,"latitude":45.8333,"avancement":83},{"label":"Vescours","id":"1437","longitude":5.03333,"latitude":46.4667,"avancement":21},{"label":"Meillonnas","id":"1241","longitude":5.35,"latitude":46.25,"avancement":16},{"label":"Géovreisset","id":"1171","longitude":5.6,"latitude":46.25,"avancement":51},{"label":"Ceyzérieu","id":"1073","longitude":5.73333,"latitude":45.8333,"avancement":85},{"label":"Béard-Géovreissiat","id":"1170","longitude":5.56667,"latitude":46.2,"avancement":27},{"label":"La Burbanche","id":"1066","longitude":5.56667,"latitude":45.85,"avancement":98},{"label":"Perrex","id":"1291","longitude":4.98333,"latitude":46.2333,"avancement":22},{"label":"Villemotier","id":"1445","longitude":5.31667,"latitude":46.35,"avancement":0},{"label":"Jasseron","id":"1195","longitude":5.33333,"latitude":46.2167,"avancement":76},{"label":"Corveissiat","id":"1125","longitude":5.48333,"latitude":46.2333,"avancement":22},{"label":"Journans","id":"1197","longitude":5.33333,"latitude":46.15,"avancement":29},{"label":"Sermoyer","id":"1402","longitude":4.98333,"latitude":46.5,"avancement":5},{"label":"Charix","id":"1087","longitude":5.68333,"latitude":46.1833,"avancement":63},{"label":"Arbignieu","id":"1015","longitude":5.65,"latitude":45.7333,"avancement":36},{"label":"Leyssard","id":"1214","longitude":5.46667,"latitude":46.1667,"avancement":77},{"label":"Saint-Jean-de-Thurigneux","id":"1362","longitude":4.88333,"latitude":45.95,"avancement":24},{"label":"Frans","id":"1166","longitude":4.78333,"latitude":45.9833,"avancement":69},{"label":"Tenay","id":"1416","longitude":5.5,"latitude":45.9167,"avancement":72},{"label":"Bâgé-la-Ville","id":"1025","longitude":4.95,"latitude":46.3167,"avancement":17},{"label":"Montmerle-sur-Saône","id":"1263","longitude":4.76667,"latitude":46.0833,"avancement":71},{"label":"Courmangoux","id":"1127","longitude":5.36667,"latitude":46.3333,"avancement":30},{"label":"Baneins","id":"1028","longitude":4.9,"latitude":46.1167,"avancement":30},{"label":"Lagnieu","id":"1202","longitude":5.35,"latitude":45.9,"avancement":16},{"label":"Attignat","id":"1024","longitude":5.16667,"latitude":46.2833,"avancement":96},{"label":"Saint-André-de-Bâgé","id":"1332","longitude":4.91667,"latitude":46.3,"avancement":79},{"label":"Pont-de-Vaux","id":"1305","longitude":4.93333,"latitude":46.4333,"avancement":2},{"label":"Ambérieu-en-Bugey","id":"1004","longitude":5.35,"latitude":45.95,"avancement":17},{"label":"Peyzieux-sur-Saône","id":"1295","longitude":4.81667,"latitude":46.1167,"avancement":4},{"label":"Crozet","id":"1135","longitude":6.01251,"latitude":46.2806,"avancement":46},{"label":"Seyssel","id":"1407","longitude":5.83194,"latitude":45.9597,"avancement":80},{"label":"Beynost","id":"1043","longitude":5,"latitude":45.8333,"avancement":5},{"label":"Versonnex","id":"1435","longitude":6.09723,"latitude":46.3023,"avancement":89},{"label":"Saint-Laurent-sur-Saône","id":"1370","longitude":4.83333,"latitude":46.3,"avancement":59},{"label":"Artemare","id":"1022","longitude":5.7,"latitude":45.8667,"avancement":56},{"label":"Montracol","id":"1264","longitude":5.11667,"latitude":46.1833,"avancement":88},{"label":"Parves","id":"1286","longitude":5.75,"latitude":45.75,"avancement":23},{"label":"Pugieu","id":"1316","longitude":5.65,"latitude":45.8167,"avancement":74},{"label":"Virieu-le-Grand","id":"1452","longitude":5.65,"latitude":45.85,"avancement":28},{"label":"Saint-Rémy","id":"1385","longitude":5.16667,"latitude":46.1833,"avancement":47},{"label":"Rancé","id":"1318","longitude":4.86667,"latitude":45.9667,"avancement":22},{"label":"Grièges","id":"1179","longitude":4.85,"latitude":46.25,"avancement":25},{"label":"Grand-Corent","id":"1177","longitude":5.43333,"latitude":46.2,"avancement":23},{"label":"Outriaz","id":"1282","longitude":5.55,"latitude":46.0667,"avancement":81},{"label":"Montagnieu","id":"1255","longitude":5.46667,"latitude":45.8,"avancement":28},{"label":"Champagne-en-Valromey","id":"1079","longitude":5.68333,"latitude":45.9,"avancement":44},{"label":"Ambérieux-en-Dombes","id":"1005","longitude":4.9,"latitude":46,"avancement":77},{"label":"La Boisse","id":"1049","longitude":5.03333,"latitude":45.85,"avancement":51},{"label":"Parcieux","id":"1285","longitude":4.81667,"latitude":45.9167,"avancement":48},{"label":"Saint-Didier-d'Aussiat","id":"1346","longitude":5.06667,"latitude":46.3,"avancement":16},{"label":"Saint-Nizier-le-Bouchoux","id":"1380","longitude":5.15,"latitude":46.45,"avancement":17},{"label":"Ars-sur-Formans","id":"1021","longitude":4.81667,"latitude":45.9833,"avancement":20},{"label":"Anglefort","id":"1010","longitude":5.80833,"latitude":45.9167,"avancement":76},{"label":"Corlier","id":"1121","longitude":5.5,"latitude":46.0333,"avancement":63},{"label":"Ferney-Voltaire","id":"1160","longitude":6.11667,"latitude":46.25,"avancement":40},{"label":"Saint-Maurice-de-Rémens","id":"1379","longitude":5.28333,"latitude":45.95,"avancement":84},{"label":"Châtillon-la-Palud","id":"1092","longitude":5.25,"latitude":45.9667,"avancement":42},{"label":"Saint-Sulpice","id":"1387","longitude":5.04167,"latitude":46.3203,"avancement":79},{"label":"Saint-Bois","id":"1340","longitude":5.63333,"latitude":45.7,"avancement":8},{"label":"Virignin","id":"1454","longitude":5.71667,"latitude":45.7167,"avancement":58},{"label":"Prémillieu","id":"1311","longitude":5.56667,"latitude":45.8667,"avancement":36},{"label":"Genouilleux","id":"1169","longitude":4.78333,"latitude":46.1167,"avancement":5},{"label":"Reyssouze","id":"1323","longitude":4.91667,"latitude":46.4333,"avancement":37},{"label":"Collonges","id":"1109","longitude":5.9,"latitude":46.1333,"avancement":24},{"label":"Saint-Germain-de-Joux","id":"1357","longitude":5.73333,"latitude":46.1833,"avancement":83},{"label":"Brégnier-Cordon","id":"1058","longitude":5.61667,"latitude":45.65,"avancement":59},{"label":"Saint-Martin-le-Châtel","id":"1375","longitude":5.11667,"latitude":46.2833,"avancement":9},{"label":"Marignieu","id":"1234","longitude":5.71667,"latitude":45.8,"avancement":4},{"label":"Neyrolles","id":"1274","longitude":5.63333,"latitude":46.1333,"avancement":3},{"label":"Sulignat","id":"1412","longitude":4.96667,"latitude":46.1667,"avancement":97},{"label":"Bény","id":"1038","longitude":5.28333,"latitude":46.3333,"avancement":31},{"label":"Injoux-Génissiat","id":"1189","longitude":5.78333,"latitude":46.05,"avancement":11},{"label":"Chanay","id":"1082","longitude":5.78333,"latitude":46,"avancement":5},{"label":"Châtillon-sur-Chalaronne","id":"1093","longitude":4.96667,"latitude":46.1167,"avancement":93},{"label":"Farges","id":"1158","longitude":5.91667,"latitude":46.1667,"avancement":96},{"label":"Saint-Alban","id":"1331","longitude":5.45,"latitude":46.1,"avancement":45},{"label":"Curtafond","id":"1140","longitude":5.08333,"latitude":46.2667,"avancement":44},{"label":"Viriat","id":"1451","longitude":5.21667,"latitude":46.25,"avancement":97},{"label":"Belleydoux","id":"1035","longitude":5.76667,"latitude":46.25,"avancement":45},{"label":"Bâgé-le-Châtel","id":"1026","longitude":4.93333,"latitude":46.3,"avancement":48},{"label":"Sainte-Olive","id":"1382","longitude":4.93333,"latitude":46.0167,"avancement":78},{"label":"Saint-Genis-sur-Menthon","id":"1355","longitude":5.01667,"latitude":46.2833,"avancement":66},{"label":"Domsure","id":"1147","longitude":5.3,"latitude":46.4167,"avancement":14},{"label":"Chavannes-sur-Suran","id":"1095","longitude":5.41667,"latitude":46.2667,"avancement":87},{"label":"Priay","id":"1314","longitude":5.28333,"latitude":46,"avancement":94},{"label":"Peyrieu","id":"1294","longitude":5.67751,"latitude":45.6767,"avancement":52},{"label":"Lalleyriat","id":"1204","longitude":5.71667,"latitude":46.15,"avancement":34},{"label":"Sergy","id":"1401","longitude":6,"latitude":46.25,"avancement":45},{"label":"Saint-Martin-du-Frêne","id":"1373","longitude":5.55,"latitude":46.1333,"avancement":60},{"label":"Saint-Maurice-de-Beynost","id":"1376","longitude":4.96667,"latitude":45.8333,"avancement":77},{"label":"Servas","id":"1405","longitude":5.16667,"latitude":46.1333,"avancement":10},{"label":"Cuzieu","id":"1141","longitude":5.67445,"latitude":45.8192,"avancement":92},{"label":"Jayat","id":"1196","longitude":5.11667,"latitude":46.3667,"avancement":82},{"label":"Lavours","id":"1208","longitude":5.76667,"latitude":45.8,"avancement":67},{"label":"Chevroux","id":"1102","longitude":4.95,"latitude":46.3833,"avancement":16},{"label":"Pollieu","id":"1302","longitude":5.75,"latitude":45.8,"avancement":85},{"label":"Béligneux","id":"1032","longitude":5.11667,"latitude":45.8667,"avancement":19},{"label":"Brénaz","id":"1059","longitude":5.71667,"latitude":45.95,"avancement":91},{"label":"Bénonces","id":"1037","longitude":5.48333,"latitude":45.8333,"avancement":84},{"label":"Saint-Jean-le-Vieux","id":"1363","longitude":5.38917,"latitude":46.0284,"avancement":21},{"label":"Beauregard","id":"1030","longitude":4.75139,"latitude":46.002,"avancement":96},{"label":"Oyonnax","id":"1283","longitude":5.66667,"latitude":46.25,"avancement":60},{"label":"Mionnay","id":"1248","longitude":4.93333,"latitude":45.9,"avancement":49},{"label":"Germagnat","id":"1172","longitude":5.45,"latitude":46.3167,"avancement":67},{"label":"Coligny","id":"1108","longitude":5.35,"latitude":46.3833,"avancement":53},{"label":"Simandre-sur-Suran","id":"1408","longitude":5.41667,"latitude":46.2167,"avancement":69},{"label":"L'Abergement-Clémenciat","id":"1001","longitude":4.91667,"latitude":46.15,"avancement":76},{"label":"Lescheroux","id":"1212","longitude":5.15,"latitude":46.4,"avancement":25},{"label":"Ornex","id":"1281","longitude":6.1,"latitude":46.2833,"avancement":51},{"label":"Dommartin","id":"1144","longitude":4.99167,"latitude":46.3417,"avancement":76},{"label":"Lompnas","id":"1219","longitude":5.51667,"latitude":45.8,"avancement":18},{"label":"Bettant","id":"1041","longitude":5.36667,"latitude":45.9333,"avancement":40},{"label":"Armix","id":"1019","longitude":5.58333,"latitude":45.85,"avancement":45},{"label":"Feillens","id":"1159","longitude":4.88333,"latitude":46.3333,"avancement":36},{"label":"Chavornay","id":"1097","longitude":5.7,"latitude":45.8833,"avancement":16},{"label":"Challex","id":"1078","longitude":5.96667,"latitude":46.1833,"avancement":57},{"label":"Vongnes","id":"1456","longitude":5.71667,"latitude":45.8167,"avancement":25},{"label":"Magnieu","id":"1227","longitude":5.71667,"latitude":45.7833,"avancement":70},{"label":"Groissiat","id":"1181","longitude":5.6,"latitude":46.2167,"avancement":35},{"label":"Dompierre-sur-Chalaronne","id":"1146","longitude":4.9,"latitude":46.1333,"avancement":100},{"label":"Montluel","id":"1262","longitude":5.05,"latitude":45.85,"avancement":82},{"label":"Le Poizat","id":"1300","longitude":5.7,"latitude":46.15,"avancement":29},{"label":"Hostiaz","id":"1186","longitude":5.53333,"latitude":45.9,"avancement":69},{"label":"Montanges","id":"1257","longitude":5.8,"latitude":46.1667,"avancement":69},{"label":"Sainte-Julie","id":"1366","longitude":5.28333,"latitude":45.8833,"avancement":29},{"label":"Bey","id":"1042","longitude":4.85,"latitude":46.2167,"avancement":5},{"label":"Sonthonnax-la-Montagne","id":"1410","longitude":5.53333,"latitude":46.2333,"avancement":36},{"label":"Mézériat","id":"1246","longitude":5.03333,"latitude":46.2333,"avancement":44},{"label":"Bellignat","id":"1031","longitude":5.61667,"latitude":46.25,"avancement":17},{"label":"Saint-Marcel","id":"1371","longitude":4.98723,"latitude":45.9487,"avancement":49},{"label":"Belley","id":"1034","longitude":5.68333,"latitude":45.7667,"avancement":88},{"label":"Corbonod","id":"1118","longitude":5.81667,"latitude":45.95,"avancement":88},{"label":"Neyron","id":"1275","longitude":4.93223,"latitude":45.8148,"avancement":61},{"label":"Saint-Paul-de-Varax","id":"1383","longitude":5.13333,"latitude":46.1,"avancement":44},{"label":"Pressiat","id":"1312","longitude":5.38333,"latitude":46.3333,"avancement":22},{"label":"Chazey-Bons","id":"1098","longitude":5.68333,"latitude":45.8,"avancement":35},{"label":"Servignat","id":"1406","longitude":5.06667,"latitude":46.4333,"avancement":79},{"label":"Marlieux","id":"1235","longitude":5.06667,"latitude":46.0667,"avancement":53},{"label":"Andert-et-Condon","id":"1009","longitude":5.65,"latitude":45.8,"avancement":44},{"label":"Hautecourt-Romanèche","id":"1184","longitude":5.41667,"latitude":46.1583,"avancement":67},{"label":"Crottet","id":"1134","longitude":4.9,"latitude":46.2833,"avancement":43},{"label":"Druillat","id":"1151","longitude":5.31667,"latitude":46.0667,"avancement":45},{"label":"Dompierre-sur-Veyle","id":"1145","longitude":5.2,"latitude":46.0667,"avancement":43},{"label":"Pérouges","id":"1290","longitude":5.18333,"latitude":45.9,"avancement":39},{"label":"Rignieux-le-Franc","id":"1325","longitude":5.18333,"latitude":45.9333,"avancement":99},{"label":"Giron","id":"1174","longitude":5.76667,"latitude":46.2333,"avancement":88},{"label":"Cerdon","id":"1068","longitude":5.46667,"latitude":46.0833,"avancement":30},{"label":"Cruzilles-lès-Mépillat","id":"1136","longitude":4.88333,"latitude":46.2167,"avancement":47},{"label":"Lélex","id":"1210","longitude":5.95,"latitude":46.3,"avancement":22},{"label":"Lhôpital","id":"1215","longitude":5.77834,"latitude":46.0217,"avancement":26},{"label":"Ségny","id":"1399","longitude":6.08333,"latitude":46.3,"avancement":63},{"label":"Cheignieu-la-Balme","id":"1100","longitude":5.61667,"latitude":45.8333,"avancement":60},{"label":"Saint-Vulbas","id":"1390","longitude":5.28333,"latitude":45.8333,"avancement":24},{"label":"Échallon","id":"1152","longitude":5.74139,"latitude":46.21,"avancement":98},{"label":"Le Montellier","id":"1260","longitude":5.06667,"latitude":45.9333,"avancement":8},{"label":"Martignat","id":"1237","longitude":5.6,"latitude":46.2167,"avancement":31},{"label":"Ceyzériat","id":"1072","longitude":5.31667,"latitude":46.1667,"avancement":40},{"label":"Montcet","id":"1259","longitude":5.11667,"latitude":46.2,"avancement":76},{"label":"Vonnas","id":"1457","longitude":5,"latitude":46.2167,"avancement":10},{"label":"Buellas","id":"1065","longitude":5.13333,"latitude":46.2,"avancement":85},{"label":"Saint-Bénigne","id":"1337","longitude":4.96667,"latitude":46.4333,"avancement":85},{"label":"Chevillard","id":"1101","longitude":5.58333,"latitude":46.1167,"avancement":79},{"label":"Bouligneux","id":"1052","longitude":5,"latitude":46.0167,"avancement":26},{"label":"Contrevoz","id":"1116","longitude":5.63333,"latitude":45.8,"avancement":64},{"label":"Champdor","id":"1080","longitude":5.6,"latitude":46.0167,"avancement":27},{"label":"Port","id":"1307","longitude":5.56667,"latitude":46.1667,"avancement":38},{"label":"Surjoux","id":"1413","longitude":5.8,"latitude":46.0167,"avancement":9},{"label":"Champfromier","id":"1081","longitude":5.81667,"latitude":46.2,"avancement":40},{"label":"Vésines","id":"1439","longitude":4.86667,"latitude":46.35,"avancement":79},{"label":"Seillonnaz","id":"1400","longitude":5.48333,"latitude":45.8,"avancement":79},{"label":"Varambon","id":"1430","longitude":5.31667,"latitude":46.0333,"avancement":12},{"label":"Le Grand-Abergement","id":"1176","longitude":5.66667,"latitude":46.0333,"avancement":26},{"label":"Jassans-Riottier","id":"1194","longitude":4.75,"latitude":45.9833,"avancement":76},{"label":"Asnières-sur-Saône","id":"1023","longitude":4.88333,"latitude":46.3833,"avancement":35},{"label":"Condamine","id":"1112","longitude":5.56667,"latitude":46.1167,"avancement":12},{"label":"Lhuis","id":"1216","longitude":5.53333,"latitude":45.75,"avancement":30},{"label":"Romans","id":"1328","longitude":5.03333,"latitude":46.1167,"avancement":84},{"label":"Pizay","id":"1297","longitude":5.08333,"latitude":45.8833,"avancement":54},{"label":"Certines","id":"1069","longitude":5.26667,"latitude":46.1333,"avancement":49},{"label":"Ruffieu","id":"1330","longitude":5.66667,"latitude":46,"avancement":59},{"label":"Meximieux","id":"1244","longitude":5.2,"latitude":45.9,"avancement":15},{"label":"Saint-Rambert-en-Bugey","id":"1384","longitude":5.43333,"latitude":45.95,"avancement":77},{"label":"Ambronay","id":"1007","longitude":5.35,"latitude":46,"avancement":30},{"label":"Cize","id":"1106","longitude":5.43333,"latitude":46.2,"avancement":44},{"label":"Saint-Germain-sur-Renon","id":"1359","longitude":5.05,"latitude":46.0833,"avancement":25},{"label":"Villette-sur-Ain","id":"1449","longitude":5.26862,"latitude":45.9884,"avancement":100},{"label":"Dagneux","id":"1142","longitude":5.06667,"latitude":45.85,"avancement":15},{"label":"Boissey","id":"1050","longitude":5,"latitude":46.3833,"avancement":44},{"label":"Salavre","id":"1391","longitude":5.35,"latitude":46.3667,"avancement":45},{"label":"Brion","id":"1063","longitude":5.55251,"latitude":46.1728,"avancement":69},{"label":"Labalme","id":"1200","longitude":5.48333,"latitude":46.1,"avancement":12},{"label":"Sauverny","id":"1397","longitude":6.11667,"latitude":46.3167,"avancement":61},{"label":"Montceaux","id":"1258","longitude":4.8,"latitude":46.1,"avancement":6},{"label":"Brénod","id":"1060","longitude":5.6,"latitude":46.0667,"avancement":55},{"label":"Misérieux","id":"1250","longitude":4.81667,"latitude":45.9833,"avancement":73},{"label":"Prévessin-Moëns","id":"1313","longitude":6.08333,"latitude":46.25,"avancement":54},{"label":"Lent","id":"1211","longitude":5.2,"latitude":46.1167,"avancement":38},{"label":"Marsonnas","id":"1236","longitude":5.06667,"latitude":46.3333,"avancement":48},{"label":"Manziat","id":"1231","longitude":4.9,"latitude":46.35,"avancement":72},{"label":"Trévoux","id":"1427","longitude":4.76667,"latitude":45.9333,"avancement":93},{"label":"Bellegarde-sur-Valserine","id":"1033","longitude":5.81667,"latitude":46.1,"avancement":100},{"label":"Bourg-en-Bresse","id":"1053","longitude":5.21667,"latitude":46.2,"avancement":53},{"label":"Confort","id":"1114","longitude":5.81667,"latitude":46.15,"avancement":18},{"label":"Saint-Denis-lès-Bourg","id":"1344","longitude":5.2,"latitude":46.2,"avancement":41},{"label":"Massignieu-de-Rives","id":"1239","longitude":5.76667,"latitude":45.75,"avancement":74},{"label":"Saint-Étienne-sur-Chalaronne","id":"1351","longitude":4.86667,"latitude":46.15,"avancement":77},{"label":"Bohas-Meyriat-Rignat","id":"1245","longitude":5.4,"latitude":46.1333,"avancement":3},{"label":"Chevry","id":"1103","longitude":6.03333,"latitude":46.2833,"avancement":12},{"label":"Fareins","id":"1157","longitude":4.76667,"latitude":46.0167,"avancement":3},{"label":"Gorrevod","id":"1175","longitude":4.95,"latitude":46.4167,"avancement":68},{"label":"Valeins","id":"1428","longitude":4.86667,"latitude":46.1167,"avancement":55},{"label":"Vieu-d'Izenave","id":"1441","longitude":5.53333,"latitude":46.0833,"avancement":48},{"label":"Toussieux","id":"1423","longitude":4.83333,"latitude":45.9667,"avancement":59},{"label":"Arbigny","id":"1016","longitude":4.96667,"latitude":46.4667,"avancement":76},{"label":"Malafretaz","id":"1229","longitude":5.15,"latitude":46.3167,"avancement":86},{"label":"Samognat","id":"1392","longitude":5.58333,"latitude":46.25,"avancement":45},{"label":"Cras-sur-Reyssouze","id":"1130","longitude":5.16667,"latitude":46.3,"avancement":16},{"label":"Messimy-sur-Saône","id":"1243","longitude":4.76473,"latitude":46.0484,"avancement":57},{"label":"Pougny","id":"1308","longitude":5.95,"latitude":46.1333,"avancement":12},{"label":"Sandrans","id":"1393","longitude":4.98333,"latitude":46.0667,"avancement":45},{"label":"Pont-de-Veyle","id":"1306","longitude":4.88333,"latitude":46.2667,"avancement":11},{"label":"Mijoux","id":"1247","longitude":6,"latitude":46.3667,"avancement":47},{"label":"Saint-Jean-de-Gonville","id":"1360","longitude":5.95,"latitude":46.2167,"avancement":93},{"label":"Saint-André-le-Bouchoux","id":"1335","longitude":5.08333,"latitude":46.1167,"avancement":46},{"label":"Chaneins","id":"1083","longitude":4.85,"latitude":46.1,"avancement":19},{"label":"Joyeux","id":"1198","longitude":5.1,"latitude":45.95,"avancement":4},{"label":"Tramoyes","id":"1424","longitude":4.96667,"latitude":45.8667,"avancement":33},{"label":"Biziat","id":"1046","longitude":4.93333,"latitude":46.2167,"avancement":28},{"label":"Izenave","id":"1191","longitude":5.53333,"latitude":46.0333,"avancement":99},{"label":"Belmont-Luthézieu","id":"1036","longitude":5.66167,"latitude":45.8795,"avancement":25},{"label":"Arbent","id":"1014","longitude":5.68333,"latitude":46.3,"avancement":97},{"label":"Sutrieu","id":"1414","longitude":5.65,"latitude":45.95,"avancement":68},{"label":"Serrières-de-Briord","id":"1403","longitude":5.45445,"latitude":45.8081,"avancement":35},{"label":"Aranc","id":"1012","longitude":5.5,"latitude":46,"avancement":16},{"label":"Chaley","id":"1076","longitude":5.53333,"latitude":45.95,"avancement":29},{"label":"Curciat-Dongalon","id":"1139","longitude":5.15,"latitude":46.4667,"avancement":64},{"label":"Loyettes","id":"1224","longitude":5.2,"latitude":45.7667,"avancement":89},{"label":"Gex","id":"1173","longitude":6.06667,"latitude":46.3333,"avancement":5},{"label":"Courtes","id":"1128","longitude":5.1,"latitude":46.4667,"avancement":30},{"label":"Béréziat","id":"1040","longitude":5.05,"latitude":46.3667,"avancement":80},{"label":"Lapeyrouse","id":"1207","longitude":4.96667,"latitude":45.9833,"avancement":86},{"label":"Apremont","id":"1011","longitude":5.65833,"latitude":46.2083,"avancement":65},{"label":"Villieu-Loyes-Mollon","id":"1450","longitude":5.22223,"latitude":45.9206,"avancement":19},{"label":"Leyment","id":"1213","longitude":5.3,"latitude":45.9167,"avancement":70},{"label":"Étrez","id":"1154","longitude":5.18333,"latitude":46.3333,"avancement":67},{"label":"Gercy","id":"2341","longitude":3.86667,"latitude":49.8167,"avancement":11},{"label":"Villemontoire","id":"2804","longitude":3.33333,"latitude":49.3,"avancement":91},{"label":"Brancourt-le-Grand","id":"2112","longitude":3.38333,"latitude":49.9667,"avancement":88},{"label":"Licy-Clignon","id":"2428","longitude":3.26667,"latitude":49.1,"avancement":29},{"label":"Proisy","id":"2624","longitude":3.73333,"latitude":49.9,"avancement":64},{"label":"Chambry","id":"2157","longitude":3.65,"latitude":49.6,"avancement":0},{"label":"Mont-Saint-Jean","id":"2522","longitude":4.2,"latitude":49.7833,"avancement":40},{"label":"Morgny-en-Thiérache","id":"2526","longitude":4.06667,"latitude":49.7667,"avancement":43},{"label":"Mesnil-Saint-Laurent","id":"2481","longitude":3.35,"latitude":49.8333,"avancement":18},{"label":"Annois","id":"2019","longitude":3.16667,"latitude":49.7167,"avancement":85},{"label":"Brunehamel","id":"2126","longitude":4.18333,"latitude":49.7667,"avancement":69},{"label":"Audignicourt","id":"2034","longitude":3.13333,"latitude":49.4833,"avancement":16},{"label":"Montigny-sur-Crécy","id":"2517","longitude":3.58333,"latitude":49.7167,"avancement":92},{"label":"Lor","id":"2440","longitude":4.05,"latitude":49.5333,"avancement":43},{"label":"Chivres-en-Laonnois","id":"2189","longitude":3.85,"latitude":49.6333,"avancement":29},{"label":"Saint-Gobain","id":"2680","longitude":3.38333,"latitude":49.6,"avancement":3},{"label":"Ugny-le-Gay","id":"2754","longitude":3.16667,"latitude":49.6667,"avancement":83},{"label":"Happencourt","id":"2367","longitude":3.18333,"latitude":49.7833,"avancement":54},{"label":"Prouvais","id":"2626","longitude":3.98333,"latitude":49.4667,"avancement":48},{"label":"Azy-sur-Marne","id":"2042","longitude":3.36667,"latitude":49,"avancement":22},{"label":"Terny-Sorny","id":"2739","longitude":3.36667,"latitude":49.45,"avancement":57},{"label":"Droizy","id":"2272","longitude":3.38333,"latitude":49.2833,"avancement":75},{"label":"Pignicourt","id":"2601","longitude":4.03333,"latitude":49.4167,"avancement":65},{"label":"Moussy-Verneuil","id":"2531","longitude":3.63333,"latitude":49.4167,"avancement":29},{"label":"Aguilcourt","id":"2005","longitude":3.96667,"latitude":49.4,"avancement":71},{"label":"Montaigu","id":"2498","longitude":3.83333,"latitude":49.5333,"avancement":99},{"label":"Moulins","id":"2530","longitude":3.68333,"latitude":49.4167,"avancement":9},{"label":"Saulchery","id":"2701","longitude":3.3,"latitude":48.9833,"avancement":29},{"label":"Nanteuil-la-Fosse","id":"2537","longitude":3.45,"latitude":49.4333,"avancement":43},{"label":"Guignicourt","id":"2360","longitude":3.96667,"latitude":49.4333,"avancement":12},{"label":"Bucy-le-Long","id":"2131","longitude":3.38333,"latitude":49.4,"avancement":84},{"label":"Longpont","id":"2438","longitude":3.21667,"latitude":49.2667,"avancement":37},{"label":"Montgobert","id":"2506","longitude":3.15,"latitude":49.3,"avancement":6},{"label":"Noircourt","id":"2556","longitude":4.1,"latitude":49.6667,"avancement":60},{"label":"Rozet-Saint-Albin","id":"2662","longitude":3.3,"latitude":49.2,"avancement":87},{"label":"Chivy-lès-Étouvelles","id":"2191","longitude":3.58333,"latitude":49.5167,"avancement":71},{"label":"Chavonne","id":"2176","longitude":3.56667,"latitude":49.4,"avancement":44},{"label":"Artonges","id":"2026","longitude":3.55,"latitude":48.9333,"avancement":39},{"label":"Oisy","id":"2569","longitude":3.66667,"latitude":50.0167,"avancement":13},{"label":"Juvigny","id":"2398","longitude":3.31667,"latitude":49.45,"avancement":65},{"label":"Marchais-en-Brie","id":"2458","longitude":3.48333,"latitude":48.8833,"avancement":8},{"label":"Bouconville-Vauclair","id":"2102","longitude":3.75556,"latitude":49.4656,"avancement":84},{"label":"La Bouteille","id":"2109","longitude":3.96667,"latitude":49.8667,"avancement":95},{"label":"Ly-Fontaine","id":"2446","longitude":3.3,"latitude":49.7167,"avancement":97},{"label":"Logny-lès-Aubenton","id":"2435","longitude":4.2,"latitude":49.8333,"avancement":12},{"label":"Cuirieux","id":"2248","longitude":3.81667,"latitude":49.6833,"avancement":77},{"label":"Iron","id":"2386","longitude":3.66667,"latitude":49.95,"avancement":34},{"label":"Joncourt","id":"2392","longitude":3.3,"latitude":49.95,"avancement":70},{"label":"Effry","id":"2275","longitude":4,"latitude":49.9333,"avancement":9},{"label":"Jumigny","id":"2396","longitude":3.71667,"latitude":49.4167,"avancement":77},{"label":"Chaourse","id":"2160","longitude":4,"latitude":49.7,"avancement":57},{"label":"Saint-Rémy-Blanzy","id":"2693","longitude":3.3,"latitude":49.2333,"avancement":7},{"label":"Beaumont-en-Beine","id":"2056","longitude":3.13333,"latitude":49.7,"avancement":71},{"label":"Le Plessier-Huleu","id":"2606","longitude":3.35,"latitude":49.2333,"avancement":74},{"label":"Estrées","id":"2291","longitude":3.28333,"latitude":49.9667,"avancement":69},{"label":"Baulne-en-Brie","id":"2053","longitude":3.61667,"latitude":48.9833,"avancement":6},{"label":"Guivry","id":"2362","longitude":3.11667,"latitude":49.65,"avancement":60},{"label":"Variscourt","id":"2761","longitude":3.98333,"latitude":49.4167,"avancement":48},{"label":"Châtillon-sur-Oise","id":"2170","longitude":3.4,"latitude":49.7833,"avancement":78},{"label":"Soissons","id":"2722","longitude":3.33333,"latitude":49.3667,"avancement":40},{"label":"Bray-Saint-Christophe","id":"2117","longitude":3.15,"latitude":49.7667,"avancement":1},{"label":"Le Hérie-la-Viéville","id":"2379","longitude":3.63333,"latitude":49.8167,"avancement":60},{"label":"Aubenton","id":"2031","longitude":4.2,"latitude":49.8333,"avancement":20},{"label":"Braye","id":"2118","longitude":3.36667,"latitude":49.4333,"avancement":67},{"label":"Brissay-Choigny","id":"2123","longitude":3.36667,"latitude":49.7167,"avancement":71},{"label":"Remaucourt","id":"2637","longitude":3.33333,"latitude":49.9,"avancement":62},{"label":"Seraucourt-le-Grand","id":"2710","longitude":3.21667,"latitude":49.7833,"avancement":14},{"label":"Berry-au-Bac","id":"2073","longitude":3.9,"latitude":49.4,"avancement":38},{"label":"Vivaise","id":"2821","longitude":3.56667,"latitude":49.6167,"avancement":21},{"label":"Proviseux-et-Plesnoy","id":"2627","longitude":4,"latitude":49.4667,"avancement":12},{"label":"Caumont","id":"2145","longitude":3.18333,"latitude":49.6167,"avancement":71},{"label":"Villers-le-Sec","id":"2813","longitude":3.5,"latitude":49.7833,"avancement":66},{"label":"Vichel-Nanteuil","id":"2796","longitude":3.28333,"latitude":49.1833,"avancement":61},{"label":"Romery","id":"2654","longitude":3.73333,"latitude":49.9,"avancement":72},{"label":"Fontaine-lès-Clercs","id":"2320","longitude":3.21667,"latitude":49.8,"avancement":21},{"label":"Chéry-lès-Pouilly","id":"2180","longitude":3.6,"latitude":49.65,"avancement":85},{"label":"Pithon","id":"2604","longitude":3.1,"latitude":49.75,"avancement":97},{"label":"Beaurieux","id":"2058","longitude":3.73333,"latitude":49.4,"avancement":6},{"label":"Sinceny","id":"2719","longitude":3.25,"latitude":49.6,"avancement":77},{"label":"Bouffignereux","id":"2104","longitude":3.85,"latitude":49.3667,"avancement":20},{"label":"Saint-Gengoulph","id":"2679","longitude":3.21667,"latitude":49.1167,"avancement":51},{"label":"Pargny-les-Bois","id":"2591","longitude":3.61667,"latitude":49.7167,"avancement":37},{"label":"Montigny-l'Allier","id":"2512","longitude":3.1,"latitude":49.1167,"avancement":69},{"label":"Beuvardes","id":"2083","longitude":3.48333,"latitude":49.15,"avancement":28},{"label":"Cuissy-et-Geny","id":"2252","longitude":3.7,"latitude":49.4167,"avancement":2},{"label":"Reuilly-Sauvigny","id":"2645","longitude":3.55,"latitude":49.0667,"avancement":32},{"label":"Vailly-sur-Aisne","id":"2758","longitude":3.51667,"latitude":49.4167,"avancement":27},{"label":"Bièvres","id":"2088","longitude":3.71667,"latitude":49.5,"avancement":10},{"label":"Berny-Rivière","id":"2071","longitude":3.15,"latitude":49.4167,"avancement":79},{"label":"Perles","id":"2597","longitude":3.65,"latitude":49.3167,"avancement":70},{"label":"Fontenelle-en-Brie","id":"2325","longitude":3.48333,"latitude":48.9167,"avancement":14},{"label":"Neuflieux","id":"2542","longitude":3.16667,"latitude":49.6,"avancement":19},{"label":"Sainte-Croix","id":"2675","longitude":3.78333,"latitude":49.4833,"avancement":61},{"label":"Pargny-la-Dhuys","id":"2590","longitude":3.55,"latitude":48.95,"avancement":7},{"label":"Brenelle","id":"2120","longitude":3.53333,"latitude":49.3667,"avancement":76},{"label":"Urvillers","id":"2756","longitude":3.31667,"latitude":49.7833,"avancement":68},{"label":"Laversine","id":"2415","longitude":3.16667,"latitude":49.35,"avancement":99},{"label":"Origny-Sainte-Benoite","id":"2575","longitude":3.5,"latitude":49.8333,"avancement":20},{"label":"Cuiry-Housse","id":"2249","longitude":3.48333,"latitude":49.3,"avancement":83},{"label":"La Neuville-lès-Dorengt","id":"2548","longitude":3.68333,"latitude":49.9667,"avancement":62},{"label":"Blanzy-lès-Fismes","id":"2091","longitude":3.66667,"latitude":49.3333,"avancement":2},{"label":"Hargicourt","id":"2370","longitude":3.18,"latitude":49.9623,"avancement":27},{"label":"Villers-sur-Fère","id":"2816","longitude":3.53333,"latitude":49.1833,"avancement":38},{"label":"La Hérie","id":"2378","longitude":4.05,"latitude":49.8833,"avancement":28},{"label":"Bonnesvalyn","id":"2099","longitude":3.31667,"latitude":49.1167,"avancement":59},{"label":"Haution","id":"2377","longitude":3.83333,"latitude":49.85,"avancement":59},{"label":"Berzy-le-Sec","id":"2077","longitude":3.31667,"latitude":49.3333,"avancement":99},{"label":"La Vallée-au-Blé","id":"2759","longitude":3.78333,"latitude":49.8667,"avancement":84},{"label":"Le Catelet","id":"2143","longitude":3.25,"latitude":50,"avancement":27},{"label":"Gizy","id":"2346","longitude":3.76667,"latitude":49.6,"avancement":75},{"label":"Saint-Algis","id":"2670","longitude":3.81667,"latitude":49.8833,"avancement":25},{"label":"Saint-Aubin","id":"2671","longitude":3.18333,"latitude":49.5167,"avancement":48},{"label":"Bancigny","id":"2044","longitude":4.01667,"latitude":49.8,"avancement":51},{"label":"Villeneuve-sur-Fère","id":"2806","longitude":3.46667,"latitude":49.1833,"avancement":99},{"label":"Fleury","id":"2316","longitude":3.15639,"latitude":49.2581,"avancement":36},{"label":"Quincy-sous-le-Mont","id":"2633","longitude":3.55,"latitude":49.3,"avancement":4},{"label":"Besny-et-Loizy","id":"2080","longitude":3.58333,"latitude":49.6,"avancement":43},{"label":"Chéry-lès-Rozoy","id":"2181","longitude":4.08333,"latitude":49.7167,"avancement":56},{"label":"Chauny","id":"2173","longitude":3.21667,"latitude":49.6167,"avancement":5},{"label":"Sommette-Eaucourt","id":"2726","longitude":3.11667,"latitude":49.7333,"avancement":24},{"label":"Lierval","id":"2429","longitude":3.61667,"latitude":49.4833,"avancement":27},{"label":"Chézy-sur-Marne","id":"2186","longitude":3.36667,"latitude":48.9833,"avancement":98},{"label":"Oulches-la-Vallée-Foulon","id":"2578","longitude":3.75,"latitude":49.4333,"avancement":95},{"label":"Anizy-le-Château","id":"2018","longitude":3.45,"latitude":49.5,"avancement":95},{"label":"Maizy","id":"2453","longitude":3.73333,"latitude":49.3833,"avancement":72},{"label":"Fourdrain","id":"2329","longitude":3.46667,"latitude":49.6,"avancement":31},{"label":"Nampteuil-sous-Muret","id":"2536","longitude":3.41667,"latitude":49.3,"avancement":83},{"label":"Urcel","id":"2755","longitude":3.55,"latitude":49.5,"avancement":50},{"label":"Louâtre","id":"2441","longitude":3.25,"latitude":49.25,"avancement":56},{"label":"Barzy-en-Thiérache","id":"2050","longitude":3.75,"latitude":50.0333,"avancement":57},{"label":"Condé-en-Brie","id":"2209","longitude":3.55,"latitude":49,"avancement":38},{"label":"Dampleux","id":"2259","longitude":3.15,"latitude":49.25,"avancement":19},{"label":"Sommelans","id":"2724","longitude":3.3,"latitude":49.1333,"avancement":56},{"label":"Pontruet","id":"2615","longitude":3.23333,"latitude":49.9,"avancement":84},{"label":"Oigny-en-Valois","id":"2568","longitude":3.13333,"latitude":49.2167,"avancement":44},{"label":"Loupeigne","id":"2442","longitude":3.53333,"latitude":49.25,"avancement":52},{"label":"Lhuys","id":"2427","longitude":3.55,"latitude":49.2833,"avancement":99},{"label":"Éparcy","id":"2278","longitude":4.06667,"latitude":49.8667,"avancement":28},{"label":"La Chapelle-Monthodon","id":"2161","longitude":3.63333,"latitude":49.0167,"avancement":94},{"label":"Morsain","id":"2527","longitude":3.18333,"latitude":49.45,"avancement":84},{"label":"Jaulgonne","id":"2389","longitude":3.53333,"latitude":49.0833,"avancement":68},{"label":"Chermizy-Ailles","id":"2178","longitude":3.73333,"latitude":49.4667,"avancement":97},{"label":"Becquigny","id":"2061","longitude":3.46973,"latitude":50.0173,"avancement":52},{"label":"Festieux","id":"2309","longitude":3.75,"latitude":49.5167,"avancement":26},{"label":"Villers-lès-Guise","id":"2814","longitude":3.68333,"latitude":49.9,"avancement":38},{"label":"Nampcelles-la-Cour","id":"2535","longitude":4,"latitude":49.7833,"avancement":73},{"label":"Montigny-en-Arrouaise","id":"2511","longitude":3.48333,"latitude":49.9,"avancement":42},{"label":"Berrieux","id":"2072","longitude":3.85,"latitude":49.4833,"avancement":92},{"label":"Chigny","id":"2188","longitude":3.76667,"latitude":49.9167,"avancement":26},{"label":"Muret-et-Crouttes","id":"2533","longitude":3.41667,"latitude":49.2833,"avancement":79},{"label":"Flavigny-le-Grand-et-Beaurain","id":"2313","longitude":3.66473,"latitude":49.8909,"avancement":33},{"label":"Laon","id":"2408","longitude":3.61667,"latitude":49.5667,"avancement":59},{"label":"Saint-Clément","id":"2674","longitude":4.06667,"latitude":49.7667,"avancement":69},{"label":"Dercy","id":"2261","longitude":3.68333,"latitude":49.7,"avancement":95},{"label":"Anguilcourt-le-Sart","id":"2017","longitude":3.43333,"latitude":49.6833,"avancement":88},{"label":"Villers-en-Prayères","id":"2811","longitude":3.66667,"latitude":49.3833,"avancement":34},{"label":"Chalandry","id":"2156","longitude":3.63333,"latitude":49.6833,"avancement":15},{"label":"Laval-en-Laonnois","id":"2413","longitude":3.6,"latitude":49.5,"avancement":27},{"label":"Fressancourt","id":"2335","longitude":3.41667,"latitude":49.6167,"avancement":97},{"label":"Le Sourd","id":"2731","longitude":3.75,"latitude":49.8667,"avancement":36},{"label":"Fontaine-Notre-Dame","id":"2322","longitude":3.43333,"latitude":49.8833,"avancement":7},{"label":"Chéry-Chartreuve","id":"2179","longitude":3.61667,"latitude":49.2667,"avancement":48},{"label":"Mortefontaine","id":"2528","longitude":3.07611,"latitude":49.3317,"avancement":72},{"label":"Serain","id":"2709","longitude":3.36667,"latitude":50.0167,"avancement":92},{"label":"Maast-et-Violaine","id":"2447","longitude":3.45,"latitude":49.2833,"avancement":99},{"label":"Neuville-sur-Ailette","id":"2550","longitude":3.7,"latitude":49.4667,"avancement":41},{"label":"Francilly-Selency","id":"2330","longitude":3.23333,"latitude":49.85,"avancement":64},{"label":"Bézu-le-Guéry","id":"2084","longitude":3.23333,"latitude":49.0167,"avancement":67},{"label":"Marle","id":"2468","longitude":3.76667,"latitude":49.7333,"avancement":27},{"label":"Lemé","id":"2416","longitude":3.76667,"latitude":49.8333,"avancement":45},{"label":"Cierges","id":"2193","longitude":3.6,"latitude":49.1667,"avancement":17},{"label":"Craonne","id":"2234","longitude":3.78333,"latitude":49.4333,"avancement":13},{"label":"Courtemont-Varennes","id":"2228","longitude":3.55,"latitude":49.0667,"avancement":54},{"label":"Pommiers","id":"2610","longitude":3.26667,"latitude":49.4,"avancement":87},{"label":"Gland","id":"2347","longitude":3.46667,"latitude":49.05,"avancement":92},{"label":"Landouzy-la-Cour","id":"2404","longitude":3.98333,"latitude":49.85,"avancement":63},{"label":"Montigny-lès-Condé","id":"2515","longitude":3.56667,"latitude":48.9833,"avancement":14},{"label":"Leuilly-sous-Coucy","id":"2423","longitude":3.33333,"latitude":49.4833,"avancement":65},{"label":"Ploisy","id":"2607","longitude":3.3,"latitude":49.3333,"avancement":88},{"label":"Serval","id":"2715","longitude":3.68333,"latitude":49.35,"avancement":59},{"label":"Billy-sur-Ourcq","id":"2090","longitude":3.3,"latitude":49.2167,"avancement":44},{"label":"Ambrief","id":"2012","longitude":3.4,"latitude":49.3167,"avancement":35},{"label":"Prisces","id":"2623","longitude":3.86667,"latitude":49.7833,"avancement":80},{"label":"Roupy","id":"2658","longitude":3.18333,"latitude":49.8167,"avancement":24},{"label":"Ronchères","id":"2655","longitude":3.6,"latitude":49.15,"avancement":33},{"label":"Lugny","id":"2444","longitude":3.81667,"latitude":49.7833,"avancement":77},{"label":"Chézy-en-Orxois","id":"2185","longitude":3.18333,"latitude":49.1333,"avancement":69},{"label":"Dhuizel","id":"2263","longitude":3.61667,"latitude":49.3667,"avancement":51},{"label":"Étampes-sur-Marne","id":"2292","longitude":3.41667,"latitude":49.0333,"avancement":80},{"label":"Vaux-en-Vermandois","id":"2772","longitude":3.15,"latitude":49.8167,"avancement":34},{"label":"Boué","id":"2103","longitude":3.7,"latitude":50.0167,"avancement":3},{"label":"La Fère","id":"2304","longitude":3.36667,"latitude":49.6667,"avancement":55},{"label":"Saint-Michel","id":"2684","longitude":4.13333,"latitude":49.9167,"avancement":8},{"label":"Castres","id":"2142","longitude":3.23333,"latitude":49.8,"avancement":27},{"label":"Mesbrecourt-Richecourt","id":"2480","longitude":3.55,"latitude":49.7,"avancement":56},{"label":"Beugneux","id":"2082","longitude":3.41667,"latitude":49.2333,"avancement":22},{"label":"Clermont-les-Fermes","id":"2200","longitude":3.95,"latitude":49.6667,"avancement":57},{"label":"Condren","id":"2212","longitude":3.28333,"latitude":49.6167,"avancement":73},{"label":"Franqueville","id":"2331","longitude":3.80945,"latitude":49.81,"avancement":49},{"label":"Arcy-Sainte-Restitue","id":"2022","longitude":3.46667,"latitude":49.25,"avancement":22},{"label":"Burelles","id":"2136","longitude":3.9,"latitude":49.7833,"avancement":63},{"label":"Rocourt-Saint-Martin","id":"2649","longitude":3.38333,"latitude":49.15,"avancement":53},{"label":"Commenchon","id":"2207","longitude":3.16667,"latitude":49.6333,"avancement":7},{"label":"Voulpaix","id":"2826","longitude":3.83333,"latitude":49.8333,"avancement":81},{"label":"Bucy-lès-Cerny","id":"2132","longitude":3.51667,"latitude":49.5833,"avancement":39},{"label":"Renansart","id":"2640","longitude":3.45,"latitude":49.7167,"avancement":23},{"label":"Presles-et-Boves","id":"2620","longitude":3.55,"latitude":49.4,"avancement":7},{"label":"Lavaqueresse","id":"2414","longitude":3.70833,"latitude":49.95,"avancement":61},{"label":"Cuffies","id":"2245","longitude":3.31667,"latitude":49.4167,"avancement":27},{"label":"Villequier-Aumont","id":"2807","longitude":3.2,"latitude":49.65,"avancement":18},{"label":"Vendelles","id":"2774","longitude":3.13333,"latitude":49.9167,"avancement":0},{"label":"Attilly","id":"2029","longitude":3.16667,"latitude":49.85,"avancement":5},{"label":"Berlancourt","id":"2068","longitude":3.75806,"latitude":49.7787,"avancement":26},{"label":"Grisolles","id":"2356","longitude":3.35,"latitude":49.15,"avancement":23},{"label":"Courcelles-sur-Vesle","id":"2224","longitude":3.57195,"latitude":49.3381,"avancement":24},{"label":"Sons-et-Ronchères","id":"2727","longitude":3.66667,"latitude":49.75,"avancement":8},{"label":"Seringes-et-Nesles","id":"2713","longitude":3.53333,"latitude":49.2,"avancement":91},{"label":"Grandlup-et-Fay","id":"2353","longitude":3.73333,"latitude":49.6667,"avancement":42},{"label":"Coincy","id":"2203","longitude":3.41667,"latitude":49.1667,"avancement":1},{"label":"Marly-Gomont","id":"2469","longitude":3.8,"latitude":49.9,"avancement":40},{"label":"Macogny","id":"2449","longitude":3.23333,"latitude":49.1667,"avancement":100},{"label":"Tartiers","id":"2736","longitude":3.23333,"latitude":49.4333,"avancement":36},{"label":"Gibercourt","id":"2345","longitude":3.28333,"latitude":49.7333,"avancement":5},{"label":"Pontru","id":"2614","longitude":3.21667,"latitude":49.9,"avancement":40},{"label":"Trélou-sur-Marne","id":"2748","longitude":3.60695,"latitude":49.077,"avancement":5},{"label":"La Ville-aux-Bois-lès-Dizy","id":"2802","longitude":3.99334,"latitude":49.6612,"avancement":40},{"label":"Amigny-Rouy","id":"2014","longitude":3.3,"latitude":49.6,"avancement":23},{"label":"Charmes","id":"2165","longitude":3.38333,"latitude":49.65,"avancement":32},{"label":"Viffort","id":"2800","longitude":3.45,"latitude":48.9667,"avancement":23},{"label":"Mâchecourt","id":"2448","longitude":3.84167,"latitude":49.6583,"avancement":79},{"label":"Nogent-l'Artaud","id":"2555","longitude":3.31667,"latitude":48.9667,"avancement":51},{"label":"Tannières","id":"2735","longitude":3.55,"latitude":49.2833,"avancement":35},{"label":"Saint-Erme-Outre-et-Ramecourt","id":"2676","longitude":3.85,"latitude":49.5167,"avancement":18},{"label":"Jouaignes","id":"2393","longitude":3.5,"latitude":49.3,"avancement":12},{"label":"Vaucelles-et-Beffecourt","id":"2765","longitude":3.55,"latitude":49.5333,"avancement":28},{"label":"Lesquielles-Saint-Germain","id":"2422","longitude":3.61667,"latitude":49.9333,"avancement":87},{"label":"Aizy-Jouy","id":"2008","longitude":3.51639,"latitude":49.4348,"avancement":90},{"label":"Faucoucourt","id":"2301","longitude":3.46667,"latitude":49.5333,"avancement":31},{"label":"Chavigny","id":"2175","longitude":3.3,"latitude":49.4333,"avancement":14},{"label":"Veuilly-la-Poterie","id":"2792","longitude":3.21667,"latitude":49.0833,"avancement":38},{"label":"Mézy-Moulins","id":"2484","longitude":3.5,"latitude":49.0667,"avancement":14},{"label":"Gernicourt","id":"2344","longitude":3.86667,"latitude":49.4,"avancement":90},{"label":"Quincy-Basse","id":"2632","longitude":3.38333,"latitude":49.5167,"avancement":97},{"label":"Sergy","id":"2712","longitude":3.56667,"latitude":49.1833,"avancement":23},{"label":"Toulis-et-Attencourt","id":"2745","longitude":3.73333,"latitude":49.6833,"avancement":68},{"label":"Puiseux-en-Retz","id":"2628","longitude":3.13333,"latitude":49.3,"avancement":22},{"label":"Leuze","id":"2425","longitude":4.15,"latitude":49.85,"avancement":31},{"label":"Crézancy","id":"2239","longitude":3.5,"latitude":49.05,"avancement":97},{"label":"Noyales","id":"2563","longitude":3.55,"latitude":49.9,"avancement":23},{"label":"Marigny-en-Orxois","id":"2465","longitude":3.21667,"latitude":49.0667,"avancement":31},{"label":"Foreste","id":"2327","longitude":3.1,"latitude":49.8167,"avancement":15},{"label":"Wissignicourt","id":"2834","longitude":3.43333,"latitude":49.5333,"avancement":71},{"label":"Tavaux-et-Pontséricourt","id":"2737","longitude":3.91667,"latitude":49.7333,"avancement":79},{"label":"Saponay","id":"2699","longitude":3.48333,"latitude":49.2167,"avancement":48},{"label":"Ébouleau","id":"2274","longitude":3.86667,"latitude":49.6667,"avancement":29},{"label":"Orainville","id":"2572","longitude":4.01667,"latitude":49.3833,"avancement":26},{"label":"Missy-lès-Pierrepont","id":"2486","longitude":3.8,"latitude":49.6333,"avancement":56},{"label":"Neuilly-Saint-Front","id":"2543","longitude":3.26667,"latitude":49.1667,"avancement":8},{"label":"Tergnier","id":"2738","longitude":3.3,"latitude":49.65,"avancement":5},{"label":"La Ferté-Milon","id":"2307","longitude":3.11667,"latitude":49.1667,"avancement":38},{"label":"Bassoles-Aulers","id":"2052","longitude":3.38333,"latitude":49.5333,"avancement":88},{"label":"Le Verguier","id":"2782","longitude":3.16667,"latitude":49.9333,"avancement":78},{"label":"Ostel","id":"2577","longitude":3.56667,"latitude":49.4333,"avancement":47},{"label":"Sissy","id":"2721","longitude":3.43333,"latitude":49.8,"avancement":99},{"label":"Leury","id":"2424","longitude":3.33333,"latitude":49.4333,"avancement":97},{"label":"La Croix-sur-Ourcq","id":"2241","longitude":3.35,"latitude":49.1667,"avancement":44},{"label":"Pernant","id":"2598","longitude":3.23333,"latitude":49.3833,"avancement":13},{"label":"Étreux","id":"2298","longitude":3.65,"latitude":49.9833,"avancement":11},{"label":"Bruys","id":"2129","longitude":3.56667,"latitude":49.2667,"avancement":29},{"label":"Fontenelle","id":"2324","longitude":3.86667,"latitude":50.0333,"avancement":15},{"label":"Cerseuil","id":"2152","longitude":3.51667,"latitude":49.3333,"avancement":33},{"label":"Voharies","id":"2823","longitude":3.8,"latitude":49.7833,"avancement":69},{"label":"Saint-Pierre-Aigle","id":"2687","longitude":3.18333,"latitude":49.3167,"avancement":98},{"label":"Saint-Martin-Rivière","id":"2683","longitude":3.53333,"latitude":50.05,"avancement":42},{"label":"Nanteuil-Notre-Dame","id":"2538","longitude":3.4,"latitude":49.2,"avancement":35},{"label":"Selens","id":"2704","longitude":3.2,"latitude":49.5,"avancement":55},{"label":"Monthenault","id":"2508","longitude":3.66667,"latitude":49.4833,"avancement":4},{"label":"Saint-Eugène","id":"2677","longitude":3.53333,"latitude":49.0167,"avancement":66},{"label":"Étouvelles","id":"2294","longitude":3.58333,"latitude":49.5333,"avancement":65},{"label":"Faverolles","id":"2302","longitude":3.17639,"latitude":49.2242,"avancement":93},{"label":"Lislet","id":"2433","longitude":4.01667,"latitude":49.6833,"avancement":10},{"label":"Vendeuil","id":"2775","longitude":3.35,"latitude":49.7167,"avancement":53},{"label":"Folembray","id":"2318","longitude":3.28333,"latitude":49.55,"avancement":82},{"label":"Courbes","id":"2222","longitude":3.45,"latitude":49.6833,"avancement":14},{"label":"Chacrise","id":"2154","longitude":3.4,"latitude":49.3,"avancement":46},{"label":"Serches","id":"2711","longitude":3.45,"latitude":49.35,"avancement":8},{"label":"Acy","id":"2003","longitude":3.41667,"latitude":49.35,"avancement":20},{"label":"Verneuil-sous-Coucy","id":"2786","longitude":3.31667,"latitude":49.5333,"avancement":84},{"label":"Bazoches-sur-Vesles","id":"2054","longitude":3.61861,"latitude":49.3073,"avancement":85},{"label":"Mauregny-en-Haye","id":"2472","longitude":3.8,"latitude":49.5333,"avancement":55},{"label":"Hartennes-et-Taux","id":"2372","longitude":3.35,"latitude":49.2667,"avancement":87},{"label":"Vasseny","id":"2763","longitude":3.48333,"latitude":49.35,"avancement":42},{"label":"Merval","id":"2479","longitude":3.7,"latitude":49.35,"avancement":1},{"label":"Corcy","id":"2216","longitude":3.21667,"latitude":49.25,"avancement":94},{"label":"Bony","id":"2100","longitude":3.21667,"latitude":49.9833,"avancement":40},{"label":"Breny","id":"2121","longitude":3.35,"latitude":49.1833,"avancement":91},{"label":"Brécy","id":"2119","longitude":3.43333,"latitude":49.15,"avancement":89},{"label":"Bruyères-sur-Fère","id":"2127","longitude":3.43333,"latitude":49.1833,"avancement":65},{"label":"Flavy-le-Martel","id":"2315","longitude":3.2,"latitude":49.7167,"avancement":7},{"label":"Pancy-Courtecon","id":"2583","longitude":3.65,"latitude":49.4667,"avancement":52},{"label":"Bosmont-sur-Serre","id":"2101","longitude":3.86667,"latitude":49.7333,"avancement":16},{"label":"Missy-aux-Bois","id":"2485","longitude":3.25,"latitude":49.3333,"avancement":100},{"label":"Surfontaine","id":"2732","longitude":3.45,"latitude":49.7333,"avancement":73},{"label":"Dagny-Lambercy","id":"2256","longitude":4.03333,"latitude":49.7667,"avancement":30},{"label":"Lanchy","id":"2402","longitude":3.08333,"latitude":49.8333,"avancement":19},{"label":"Vaudesson","id":"2766","longitude":3.48333,"latitude":49.4667,"avancement":0},{"label":"Cœuvres-et-Valsery","id":"2201","longitude":3.15,"latitude":49.3333,"avancement":78},{"label":"Épieds","id":"2280","longitude":3.45,"latitude":49.1,"avancement":41},{"label":"Villeneuve-Saint-Germain","id":"2805","longitude":3.35,"latitude":49.3833,"avancement":80},{"label":"Alaincourt","id":"2009","longitude":3.36667,"latitude":49.75,"avancement":12},{"label":"Soucy","id":"2729","longitude":3.13333,"latitude":49.3167,"avancement":62},{"label":"Archon","id":"2021","longitude":4.11667,"latitude":49.7417,"avancement":28},{"label":"Pargny-Filain","id":"2589","longitude":3.53333,"latitude":49.4667,"avancement":29},{"label":"Germaine","id":"2343","longitude":3.11667,"latitude":49.7833,"avancement":84},{"label":"La Neuville-Housset","id":"2547","longitude":3.71667,"latitude":49.7833,"avancement":89},{"label":"Belleau","id":"2062","longitude":3.3,"latitude":49.1,"avancement":91},{"label":"Paars","id":"2581","longitude":3.6,"latitude":49.3333,"avancement":78},{"label":"Laniscourt","id":"2407","longitude":3.55,"latitude":49.55,"avancement":44},{"label":"Sermoise","id":"2714","longitude":3.45,"latitude":49.3667,"avancement":79},{"label":"Barenton-Bugny","id":"2046","longitude":3.65,"latitude":49.6333,"avancement":10},{"label":"Quierzy","id":"2631","longitude":3.13333,"latitude":49.5667,"avancement":20},{"label":"Cerizy","id":"2149","longitude":3.33333,"latitude":49.75,"avancement":20},{"label":"La Ferté-Chevresis","id":"2306","longitude":3.56667,"latitude":49.7333,"avancement":12},{"label":"Ramicourt","id":"2635","longitude":3.33333,"latitude":49.95,"avancement":76},{"label":"Bussiares","id":"2137","longitude":3.25,"latitude":49.0833,"avancement":39},{"label":"Bernot","id":"2070","longitude":3.5,"latitude":49.8667,"avancement":99},{"label":"Lerzy","id":"2418","longitude":3.86667,"latitude":49.9333,"avancement":3},{"label":"Samoussy","id":"2697","longitude":3.73333,"latitude":49.5833,"avancement":15},{"label":"Grougis","id":"2358","longitude":3.53333,"latitude":49.9333,"avancement":16},{"label":"Macquigny","id":"2450","longitude":3.55,"latitude":49.8833,"avancement":85},{"label":"La Flamengrie","id":"2312","longitude":3.91667,"latitude":50,"avancement":30},{"label":"Servais","id":"2716","longitude":3.35,"latitude":49.6167,"avancement":97},{"label":"Bertricourt","id":"2076","longitude":4,"latitude":49.3833,"avancement":50},{"label":"Osly-Courtil","id":"2576","longitude":3.21667,"latitude":49.4,"avancement":26},{"label":"Verneuil-sur-Serre","id":"2787","longitude":3.66667,"latitude":49.65,"avancement":78},{"label":"Mayot","id":"2473","longitude":3.38333,"latitude":49.7,"avancement":24},{"label":"Wassigny","id":"2830","longitude":3.6,"latitude":50.0167,"avancement":73},{"label":"Barenton-Cel","id":"2047","longitude":3.63333,"latitude":49.65,"avancement":1},{"label":"Englancourt","id":"2276","longitude":3.8,"latitude":49.9167,"avancement":17},{"label":"Athies-sous-Laon","id":"2028","longitude":3.68333,"latitude":49.5667,"avancement":84},{"label":"Froidestrées","id":"2337","longitude":3.9,"latitude":49.9333,"avancement":82},{"label":"La Malmaison","id":"2454","longitude":3.98333,"latitude":49.5167,"avancement":35},{"label":"Manicamp","id":"2456","longitude":3.16667,"latitude":49.5667,"avancement":81},{"label":"Barenton-sur-Serre","id":"2048","longitude":3.68333,"latitude":49.6667,"avancement":21},{"label":"Audigny","id":"2035","longitude":3.65,"latitude":49.85,"avancement":58},{"label":"Ohis","id":"2567","longitude":4.01667,"latitude":49.9333,"avancement":27},{"label":"Martigny","id":"2470","longitude":4.13333,"latitude":49.8667,"avancement":17},{"label":"Barisis","id":"2049","longitude":3.32806,"latitude":49.5787,"avancement":13},{"label":"Épaux-Bézu","id":"2279","longitude":3.35,"latitude":49.1,"avancement":19},{"label":"Abbécourt","id":"2001","longitude":3.18333,"latitude":49.6,"avancement":78},{"label":"Hauteville","id":"2376","longitude":3.51667,"latitude":49.8667,"avancement":84},{"label":"Benay","id":"2066","longitude":3.31667,"latitude":49.75,"avancement":75},{"label":"La Neuville-en-Beine","id":"2546","longitude":3.15,"latitude":49.6833,"avancement":22},{"label":"Tupigny","id":"2753","longitude":3.6,"latitude":49.95,"avancement":15},{"label":"Vervins","id":"2789","longitude":3.9,"latitude":49.8333,"avancement":88},{"label":"Dorengt","id":"2269","longitude":3.68333,"latitude":49.9667,"avancement":24},{"label":"Saint-Gobert","id":"2681","longitude":3.81667,"latitude":49.8,"avancement":94},{"label":"Parcy-et-Tigny","id":"2585","longitude":3.335,"latitude":49.2787,"avancement":31},{"label":"Saint-Pierre-lès-Franqueville","id":"2688","longitude":3.82361,"latitude":49.8195,"avancement":60},{"label":"Mont-Notre-Dame","id":"2520","longitude":3.58333,"latitude":49.3,"avancement":25},{"label":"Mont-Saint-Martin","id":"2523","longitude":3.63333,"latitude":49.2833,"avancement":74},{"label":"Chierry","id":"2187","longitude":3.43333,"latitude":49.0333,"avancement":99},{"label":"Cutry","id":"2254","longitude":3.18333,"latitude":49.35,"avancement":31},{"label":"Chevennes","id":"2182","longitude":3.73333,"latitude":49.8167,"avancement":95},{"label":"Montigny-le-Franc","id":"2513","longitude":3.91667,"latitude":49.6833,"avancement":89},{"label":"Bourg-et-Comin","id":"2106","longitude":3.65,"latitude":49.4,"avancement":31},{"label":"Saint-Agnan","id":"2669","longitude":3.6,"latitude":49.0167,"avancement":14},{"label":"Coulonges-Cohan","id":"2220","longitude":3.63639,"latitude":49.2012,"avancement":52},{"label":"Prémontré","id":"2619","longitude":3.4,"latitude":49.55,"avancement":34},{"label":"Courtrizy-et-Fussigny","id":"2229","longitude":3.8,"latitude":49.5167,"avancement":33},{"label":"Jumencourt","id":"2395","longitude":3.35,"latitude":49.5167,"avancement":29},{"label":"Clairfontaine","id":"2197","longitude":3.98333,"latitude":49.9833,"avancement":18},{"label":"Sequehart","id":"2708","longitude":3.33333,"latitude":49.9167,"avancement":51},{"label":"Agnicourt-et-Séchelles","id":"2004","longitude":3.95,"latitude":49.7167,"avancement":59},{"label":"Roucy","id":"2656","longitude":3.81667,"latitude":49.3667,"avancement":38},{"label":"Prémont","id":"2618","longitude":3.38333,"latitude":50,"avancement":71},{"label":"Clastres","id":"2199","longitude":3.23333,"latitude":49.7333,"avancement":15},{"label":"Le Charmel","id":"2164","longitude":3.55,"latitude":49.1167,"avancement":78},{"label":"Allemant","id":"2010","longitude":3.45,"latitude":49.4667,"avancement":60},{"label":"Mont-Saint-Père","id":"2524","longitude":3.48333,"latitude":49.0667,"avancement":31},{"label":"Parfondeval","id":"2586","longitude":4.16667,"latitude":49.7333,"avancement":49},{"label":"Chivres-Val","id":"2190","longitude":3.43333,"latitude":49.4,"avancement":1},{"label":"Aubencheul-aux-Bois","id":"2030","longitude":3.26667,"latitude":50.0333,"avancement":38},{"label":"Montfaucon","id":"2505","longitude":3.45,"latitude":48.95,"avancement":17},{"label":"Autels","id":"2038","longitude":4.2257,"latitude":49.7667,"avancement":30},{"label":"Fontenoy","id":"2326","longitude":3.2,"latitude":49.4167,"avancement":11},{"label":"Crécy-au-Mont","id":"2236","longitude":3.31667,"latitude":49.4833,"avancement":32},{"label":"Morcourt","id":"2525","longitude":3.31667,"latitude":49.8667,"avancement":38},{"label":"Neuville-sur-Margival","id":"2551","longitude":3.4,"latitude":49.45,"avancement":3},{"label":"Cys-la-Commune","id":"2255","longitude":3.56667,"latitude":49.4,"avancement":76},{"label":"Marizy-Saint-Mard","id":"2467","longitude":3.21667,"latitude":49.1833,"avancement":86},{"label":"Villeret","id":"2808","longitude":3.18333,"latitude":49.95,"avancement":29},{"label":"Amifontaine","id":"2013","longitude":3.91667,"latitude":49.4833,"avancement":38},{"label":"Fontaine-Uterte","id":"2323","longitude":3.36667,"latitude":49.9167,"avancement":40},{"label":"Dolignon","id":"2266","longitude":4.08333,"latitude":49.7167,"avancement":30},{"label":"Étaves-et-Bocquiaux","id":"2293","longitude":3.45,"latitude":49.9333,"avancement":15},{"label":"Rocquigny","id":"2650","longitude":3.98333,"latitude":50.0333,"avancement":75},{"label":"Mortiers","id":"2529","longitude":3.66667,"latitude":49.6833,"avancement":91},{"label":"Rozoy-sur-Serre","id":"2666","longitude":4.13333,"latitude":49.7167,"avancement":55},{"label":"Malzy","id":"2455","longitude":3.73333,"latitude":49.9,"avancement":53},{"label":"Bellenglise","id":"2063","longitude":3.25,"latitude":49.9167,"avancement":67},{"label":"Cerny-en-Laonnois","id":"2150","longitude":3.66667,"latitude":49.45,"avancement":26},{"label":"Montloué","id":"2519","longitude":4.06667,"latitude":49.6667,"avancement":46},{"label":"Sainte-Geneviève","id":"2678","longitude":4.07139,"latitude":49.7195,"avancement":32},{"label":"Neuve-Maison","id":"2544","longitude":4.03333,"latitude":49.9333,"avancement":17},{"label":"Bézu-Saint-Germain","id":"2085","longitude":3.4,"latitude":49.1,"avancement":39},{"label":"Étréaupont","id":"2295","longitude":3.91667,"latitude":49.9,"avancement":6},{"label":"Berthenicourt","id":"2075","longitude":3.38333,"latitude":49.7667,"avancement":19},{"label":"Thiernu","id":"2742","longitude":3.8,"latitude":49.75,"avancement":7},{"label":"Laigny","id":"2401","longitude":3.86667,"latitude":49.85,"avancement":12},{"label":"Aisonville-et-Bernoville","id":"2006","longitude":3.53333,"latitude":49.9333,"avancement":55},{"label":"Crouy","id":"2243","longitude":3.36667,"latitude":49.4,"avancement":36},{"label":"Hirson","id":"2381","longitude":4.08333,"latitude":49.9167,"avancement":22},{"label":"Bagneux","id":"2043","longitude":3.28333,"latitude":49.4667,"avancement":78},{"label":"Autremencourt","id":"2039","longitude":3.8,"latitude":49.7,"avancement":24},{"label":"La Celle-sous-Montmirail","id":"2147","longitude":3.46611,"latitude":48.8648,"avancement":57},{"label":"Condé-sur-Aisne","id":"2210","longitude":3.45,"latitude":49.4,"avancement":69},{"label":"Blérancourt","id":"2093","longitude":3.15,"latitude":49.5167,"avancement":41},{"label":"Monthurel","id":"2510","longitude":3.55,"latitude":49.0167,"avancement":71},{"label":"Petit-Verly","id":"2784","longitude":3.55,"latitude":49.9667,"avancement":15},{"label":"Soize","id":"2723","longitude":4.08333,"latitude":49.7,"avancement":11},{"label":"Saconin-et-Breuil","id":"2667","longitude":3.25,"latitude":49.3667,"avancement":60},{"label":"Largny-sur-Automne","id":"2410","longitude":3.05,"latitude":49.2667,"avancement":40},{"label":"Sommeron","id":"2725","longitude":3.95,"latitude":49.95,"avancement":90},{"label":"Veslud","id":"2791","longitude":3.73333,"latitude":49.5333,"avancement":27},{"label":"Liesse-Notre-Dame","id":"2430","longitude":3.80445,"latitude":49.6095,"avancement":21},{"label":"Chaudun","id":"2172","longitude":3.26667,"latitude":49.3167,"avancement":4},{"label":"Vuillery","id":"2829","longitude":3.38333,"latitude":49.4333,"avancement":62},{"label":"Omissy","id":"2571","longitude":3.31667,"latitude":49.8833,"avancement":64},{"label":"Pavant","id":"2596","longitude":3.28333,"latitude":48.95,"avancement":9},{"label":"Missy-sur-Aisne","id":"2487","longitude":3.43333,"latitude":49.3833,"avancement":23},{"label":"Cugny","id":"2246","longitude":3.15,"latitude":49.7,"avancement":83},{"label":"Parfondru","id":"2587","longitude":3.71667,"latitude":49.5333,"avancement":13},{"label":"Coingt","id":"2204","longitude":4.08333,"latitude":49.7833,"avancement":74},{"label":"Fonsomme","id":"2319","longitude":3.4,"latitude":49.9,"avancement":72},{"label":"Dury","id":"2273","longitude":3.12889,"latitude":49.7506,"avancement":61},{"label":"Royaucourt-et-Chailvet","id":"2661","longitude":3.53333,"latitude":49.5167,"avancement":38},{"label":"Landricourt","id":"2406","longitude":3.36667,"latitude":49.5,"avancement":88},{"label":"Sissonne","id":"2720","longitude":3.9,"latitude":49.5667,"avancement":18},{"label":"Berlise","id":"2069","longitude":4.11667,"latitude":49.6667,"avancement":63},{"label":"Ribemont","id":"2648","longitude":3.46667,"latitude":49.8,"avancement":92},{"label":"Sains-Richaumont","id":"2668","longitude":3.7,"latitude":49.8167,"avancement":47},{"label":"Filain","id":"2311","longitude":3.55,"latitude":49.4667,"avancement":94},{"label":"Chevregny","id":"2183","longitude":3.58333,"latitude":49.4667,"avancement":52},{"label":"Montchâlons","id":"2501","longitude":3.73333,"latitude":49.5167,"avancement":80},{"label":"Brumetz","id":"2125","longitude":3.15,"latitude":49.1,"avancement":77},{"label":"Taillefontaine","id":"2734","longitude":3.03333,"latitude":49.3167,"avancement":63},{"label":"Guny","id":"2363","longitude":3.26667,"latitude":49.5167,"avancement":20},{"label":"Fresnoy-le-Grand","id":"2334","longitude":3.41667,"latitude":49.95,"avancement":1},{"label":"Nouvron-Vingré","id":"2562","longitude":3.2,"latitude":49.4333,"avancement":3},{"label":"Magny-la-Fosse","id":"2451","longitude":3.28333,"latitude":49.9333,"avancement":63},{"label":"Cuisy-en-Almont","id":"2253","longitude":3.25,"latitude":49.4167,"avancement":6},{"label":"Montbavin","id":"2499","longitude":3.51667,"latitude":49.5333,"avancement":92},{"label":"Vorges","id":"2824","longitude":3.65,"latitude":49.5167,"avancement":17},{"label":"Montescourt-Lizerolles","id":"2504","longitude":3.2575,"latitude":49.7387,"avancement":43},{"label":"Pont-Arcy","id":"2612","longitude":3.61667,"latitude":49.3833,"avancement":98},{"label":"Grugies","id":"2359","longitude":3.26667,"latitude":49.8,"avancement":14},{"label":"Bieuxy","id":"2087","longitude":3.26667,"latitude":49.45,"avancement":32},{"label":"Marcy","id":"2459","longitude":3.4,"latitude":49.8333,"avancement":7},{"label":"Braine","id":"2110","longitude":3.53333,"latitude":49.3333,"avancement":35},{"label":"Orgeval","id":"2573","longitude":3.7,"latitude":49.5167,"avancement":68},{"label":"Marest-Dampcourt","id":"2461","longitude":3.15,"latitude":49.6,"avancement":91},{"label":"Cilly","id":"2194","longitude":3.83333,"latitude":49.7333,"avancement":48},{"label":"Harly","id":"2371","longitude":3.31667,"latitude":49.8333,"avancement":80},{"label":"Rouvroy","id":"2659","longitude":3.31667,"latitude":49.85,"avancement":54},{"label":"Romeny-sur-Marne","id":"2653","longitude":3.33333,"latitude":48.9833,"avancement":44},{"label":"Douchy","id":"2270","longitude":3.11667,"latitude":49.7667,"avancement":37},{"label":"Vauxtin","id":"2773","longitude":3.6,"latitude":49.35,"avancement":74},{"label":"Rogécourt","id":"2651","longitude":3.41667,"latitude":49.6333,"avancement":58},{"label":"Montigny-Lengrain","id":"2514","longitude":3.1,"latitude":49.3667,"avancement":67},{"label":"Houry","id":"2384","longitude":3.85,"latitude":49.7833,"avancement":50},{"label":"Pierrepont","id":"2600","longitude":3.78333,"latitude":49.65,"avancement":32},{"label":"Dohis","id":"2265","longitude":4.13333,"latitude":49.75,"avancement":71},{"label":"Brasles","id":"2114","longitude":3.43333,"latitude":49.05,"avancement":76},{"label":"Aubigny-en-Laonnois","id":"2033","longitude":3.8,"latitude":49.5,"avancement":53},{"label":"Paissy","id":"2582","longitude":3.7,"latitude":49.4167,"avancement":47},{"label":"Nouvion-le-Comte","id":"2560","longitude":3.46667,"latitude":49.6833,"avancement":7},{"label":"Monceau-le-Neuf-et-Faucouzy","id":"2491","longitude":3.61584,"latitude":49.7698,"avancement":20},{"label":"Raillimont","id":"2634","longitude":4.15,"latitude":49.7083,"avancement":72},{"label":"Dammard","id":"2258","longitude":3.2,"latitude":49.15,"avancement":58},{"label":"Passy-sur-Marne","id":"2595","longitude":3.56667,"latitude":49.0667,"avancement":95},{"label":"Lempire","id":"2417","longitude":3.16667,"latitude":49.9833,"avancement":80},{"label":"Cuiry-lès-Chaudardes","id":"2250","longitude":3.76667,"latitude":49.3833,"avancement":29},{"label":"Housset","id":"2385","longitude":3.7,"latitude":49.7833,"avancement":6},{"label":"Billy-sur-Aisne","id":"2089","longitude":3.38333,"latitude":49.3667,"avancement":4},{"label":"Belleu","id":"2064","longitude":3.33333,"latitude":49.3667,"avancement":40},{"label":"Pontavert","id":"2613","longitude":3.81667,"latitude":49.4167,"avancement":16},{"label":"Dizy-le-Gros","id":"2264","longitude":4.01667,"latitude":49.6333,"avancement":7},{"label":"Crouttes-sur-Marne","id":"2242","longitude":3.24,"latitude":48.98,"avancement":10},{"label":"Courmelles","id":"2226","longitude":3.31667,"latitude":49.35,"avancement":11},{"label":"Bichancourt","id":"2086","longitude":3.21667,"latitude":49.5833,"avancement":43},{"label":"Beauvois-en-Vermandois","id":"2060","longitude":3.1,"latitude":49.8167,"avancement":38},{"label":"Priez","id":"2622","longitude":3.26667,"latitude":49.1333,"avancement":33},{"label":"Chassemy","id":"2167","longitude":3.5,"latitude":49.3833,"avancement":44},{"label":"Étrépilly","id":"2297","longitude":3.33333,"latitude":49.0833,"avancement":100},{"label":"Artemps","id":"2025","longitude":3.18333,"latitude":49.7667,"avancement":55},{"label":"Frières-Faillouël","id":"2336","longitude":3.25,"latitude":49.6667,"avancement":20},{"label":"Wiège-Faty","id":"2832","longitude":3.73333,"latitude":49.8833,"avancement":95},{"label":"Saint-Nicolas-aux-Bois","id":"2685","longitude":3.41667,"latitude":49.6,"avancement":18},{"label":"Gricourt","id":"2355","longitude":3.25,"latitude":49.8833,"avancement":9},{"label":"Blesmes","id":"2094","longitude":3.45,"latitude":49.0333,"avancement":93},{"label":"Ville-Savoye","id":"2817","longitude":3.63333,"latitude":49.3,"avancement":67},{"label":"Mercin-et-Vaux","id":"2477","longitude":3.28333,"latitude":49.3833,"avancement":90},{"label":"Chevresis-Monceau","id":"2184","longitude":3.56667,"latitude":49.75,"avancement":8},{"label":"Beaurevoir","id":"2057","longitude":3.3,"latitude":50,"avancement":21},{"label":"Saint-Bandry","id":"2672","longitude":3.16667,"latitude":49.3667,"avancement":49},{"label":"Vregny","id":"2828","longitude":3.41667,"latitude":49.4167,"avancement":76},{"label":"Vadencourt","id":"2757","longitude":3.58333,"latitude":49.9333,"avancement":47},{"label":"Vierzy","id":"2799","longitude":3.28333,"latitude":49.2833,"avancement":33},{"label":"Caillouël-Crépigny","id":"2139","longitude":3.15,"latitude":49.6167,"avancement":28},{"label":"Nizy-le-Comte","id":"2553","longitude":4.05,"latitude":49.5667,"avancement":63},{"label":"Vendières","id":"2777","longitude":3.45,"latitude":48.8667,"avancement":34},{"label":"Buzancy","id":"2138","longitude":3.35,"latitude":49.3167,"avancement":13},{"label":"Jeantes","id":"2391","longitude":4.05,"latitude":49.8,"avancement":43},{"label":"Connigis","id":"2213","longitude":3.53333,"latitude":49.0333,"avancement":43},{"label":"Torcy-en-Valois","id":"2744","longitude":3.26667,"latitude":49.0833,"avancement":16},{"label":"Coucy-la-Ville","id":"2219","longitude":3.33333,"latitude":49.5333,"avancement":89},{"label":"Goudelancourt-lès-Pierrepont","id":"2350","longitude":3.85473,"latitude":49.6689,"avancement":29},{"label":"Passy-en-Valois","id":"2594","longitude":3.2,"latitude":49.1667,"avancement":91},{"label":"Montgru-Saint-Hilaire","id":"2507","longitude":3.33333,"latitude":49.1833,"avancement":47},{"label":"Mont-d'Origny","id":"2503","longitude":3.48333,"latitude":49.8333,"avancement":35},{"label":"Vassogne","id":"2764","longitude":3.73333,"latitude":49.4167,"avancement":41},{"label":"Maissemy","id":"2452","longitude":3.2,"latitude":49.8833,"avancement":96},{"label":"Rogny","id":"2652","longitude":3.81667,"latitude":49.7667,"avancement":1},{"label":"Vénérolles","id":"2779","longitude":3.63333,"latitude":49.9667,"avancement":58},{"label":"Clamecy","id":"2198","longitude":3.36667,"latitude":49.4333,"avancement":58},{"label":"Viel-Arcy","id":"2797","longitude":3.61667,"latitude":49.3833,"avancement":96},{"label":"Guyencourt","id":"2364","longitude":3.83333,"latitude":49.35,"avancement":91},{"label":"Mennevret","id":"2476","longitude":3.55,"latitude":49.9833,"avancement":31},{"label":"Caulaincourt","id":"2144","longitude":3.1,"latitude":49.8667,"avancement":57},{"label":"Oulchy-le-Château","id":"2580","longitude":3.35,"latitude":49.2,"avancement":46},{"label":"Guise","id":"2361","longitude":3.63333,"latitude":49.9,"avancement":98},{"label":"Champs","id":"2159","longitude":3.25,"latitude":49.5333,"avancement":22},{"label":"Sainte-Preuve","id":"2690","longitude":3.91667,"latitude":49.6167,"avancement":9},{"label":"Proix","id":"2625","longitude":3.56667,"latitude":49.9,"avancement":57},{"label":"Ambleny","id":"2011","longitude":3.18333,"latitude":49.3833,"avancement":89},{"label":"Ribeauville","id":"2647","longitude":3.58333,"latitude":50.05,"avancement":13},{"label":"Tugny-et-Pont","id":"2752","longitude":3.15,"latitude":49.75,"avancement":37},{"label":"Fresnes","id":"2333","longitude":3.36973,"latitude":49.5539,"avancement":81},{"label":"Bourguignon-sous-Montbavin","id":"2108","longitude":3.54139,"latitude":49.5281,"avancement":65},{"label":"Neuvillette","id":"2552","longitude":3.46667,"latitude":49.85,"avancement":90},{"label":"Saint-Thomas","id":"2696","longitude":3.81667,"latitude":49.5,"avancement":37},{"label":"Marfontaine","id":"2463","longitude":3.78333,"latitude":49.8,"avancement":27},{"label":"Besmont","id":"2079","longitude":4.11667,"latitude":49.8333,"avancement":53},{"label":"Lehaucourt","id":"2374","longitude":3.28333,"latitude":49.9167,"avancement":36},{"label":"Brissy-Hamégicourt","id":"2124","longitude":3.38028,"latitude":49.7437,"avancement":30},{"label":"Plomion","id":"2608","longitude":4.01667,"latitude":49.8,"avancement":85},{"label":"Savy","id":"2702","longitude":3.18333,"latitude":49.8,"avancement":63},{"label":"Puisieux-et-Clanlieu","id":"2629","longitude":3.66667,"latitude":49.85,"avancement":49},{"label":"Ciry-Salsogne","id":"2195","longitude":3.46667,"latitude":49.3667,"avancement":67},{"label":"Crupilly","id":"2244","longitude":3.75,"latitude":49.9167,"avancement":70},{"label":"Dommiers","id":"2267","longitude":3.21667,"latitude":49.3333,"avancement":71},{"label":"Étreillers","id":"2296","longitude":3.15,"latitude":49.8167,"avancement":79},{"label":"Chouy","id":"2192","longitude":3.25,"latitude":49.2,"avancement":72},{"label":"Landifay-et-Bertaignemont","id":"2403","longitude":3.6,"latitude":49.8167,"avancement":34},{"label":"Silly-la-Poterie","id":"2718","longitude":3.15,"latitude":49.2,"avancement":30},{"label":"Nauroy","id":"2539","longitude":3.25,"latitude":49.95,"avancement":31},{"label":"Limé","id":"2432","longitude":3.55,"latitude":49.3167,"avancement":99},{"label":"Aubigny-aux-Kaisnes","id":"2032","longitude":3.11667,"latitude":49.7833,"avancement":22},{"label":"Monceau-le-Waast","id":"2493","longitude":3.7,"latitude":49.6167,"avancement":12},{"label":"Cuiry-lès-Iviers","id":"2251","longitude":4.10973,"latitude":49.7614,"avancement":40},{"label":"Regny","id":"2636","longitude":3.41667,"latitude":49.8167,"avancement":23},{"label":"Villers-Saint-Christophe","id":"2815","longitude":3.1,"latitude":49.7833,"avancement":1},{"label":"Chaillevois","id":"2155","longitude":3.51667,"latitude":49.5167,"avancement":13},{"label":"Vézilly","id":"2794","longitude":3.7,"latitude":49.1833,"avancement":19},{"label":"Lappion","id":"2409","longitude":3.96667,"latitude":49.6167,"avancement":78},{"label":"Fresnes-en-Tardenois","id":"2332","longitude":3.55,"latitude":49.15,"avancement":47},{"label":"Grand-Rozoy","id":"2665","longitude":3.38333,"latitude":49.2333,"avancement":16},{"label":"Condé-sur-Suippe","id":"2211","longitude":3.95,"latitude":49.4167,"avancement":75},{"label":"Celles-lès-Condé","id":"2146","longitude":3.56667,"latitude":49.0167,"avancement":30},{"label":"Cessières","id":"2153","longitude":3.48333,"latitude":49.5667,"avancement":78},{"label":"Courboin","id":"2223","longitude":3.5,"latitude":49,"avancement":8},{"label":"Verdilly","id":"2781","longitude":3.41667,"latitude":49.0667,"avancement":94},{"label":"Sorbais","id":"2728","longitude":3.9,"latitude":49.9167,"avancement":62},{"label":"Thenailles","id":"2740","longitude":3.95,"latitude":49.8167,"avancement":48},{"label":"Menneville","id":"2475","longitude":4,"latitude":49.4167,"avancement":9},{"label":"Bonneil","id":"2098","longitude":3.35,"latitude":49,"avancement":95},{"label":"Couvron-et-Aumencourt","id":"2231","longitude":3.51667,"latitude":49.65,"avancement":54},{"label":"Chavignon","id":"2174","longitude":3.51667,"latitude":49.4833,"avancement":83},{"label":"Gandelu","id":"2339","longitude":3.18333,"latitude":49.1,"avancement":0},{"label":"Le Thuel","id":"2743","longitude":4.07695,"latitude":49.6495,"avancement":53},{"label":"Septvaux","id":"2707","longitude":3.38333,"latitude":49.5667,"avancement":70},{"label":"Neufchâtel-sur-Aisne","id":"2541","longitude":4.03333,"latitude":49.4333,"avancement":99},{"label":"Boncourt","id":"2097","longitude":3.95,"latitude":49.6167,"avancement":35},{"label":"Monampteuil","id":"2490","longitude":3.56667,"latitude":49.4833,"avancement":6},{"label":"Villiers-Saint-Denis","id":"2818","longitude":3.26723,"latitude":48.9931,"avancement":53},{"label":"Glennes","id":"2348","longitude":3.71667,"latitude":49.35,"avancement":16},{"label":"Jussy","id":"2397","longitude":3.23333,"latitude":49.7167,"avancement":80},{"label":"Croix-Fonsomme","id":"2240","longitude":3.4,"latitude":49.9167,"avancement":100},{"label":"Bertaucourt-Epourdon","id":"2074","longitude":3.38333,"latitude":49.6167,"avancement":39},{"label":"Bucilly","id":"2130","longitude":4.08333,"latitude":49.8833,"avancement":98},{"label":"Saint-Thibaut","id":"2695","longitude":3.61667,"latitude":49.3,"avancement":9},{"label":"Landouzy-la-Ville","id":"2405","longitude":4.05,"latitude":49.8667,"avancement":93},{"label":"Goudelancourt-lès-Berrieux","id":"2349","longitude":3.84917,"latitude":49.4967,"avancement":71},{"label":"Colligis-Crandelain","id":"2205","longitude":3.65,"latitude":49.4833,"avancement":72},{"label":"Nesles-la-Montagne","id":"2540","longitude":3.41667,"latitude":49.0167,"avancement":37},{"label":"La Capelle","id":"2141","longitude":3.91639,"latitude":49.9773,"avancement":18},{"label":"Aizelles","id":"2007","longitude":3.81667,"latitude":49.4833,"avancement":4},{"label":"Vermand","id":"2785","longitude":3.15,"latitude":49.8667,"avancement":75},{"label":"Monthiers","id":"2509","longitude":3.3,"latitude":49.1,"avancement":13},{"label":"Saint-Pierremont","id":"2689","longitude":3.88333,"latitude":49.7167,"avancement":62},{"label":"Celles-sur-Aisne","id":"2148","longitude":3.48333,"latitude":49.4167,"avancement":80},{"label":"Évergnicourt","id":"2299","longitude":4.03333,"latitude":49.4333,"avancement":93},{"label":"Fossoy","id":"2328","longitude":3.48333,"latitude":49.05,"avancement":47},{"label":"Muscourt","id":"2534","longitude":3.75,"latitude":49.3667,"avancement":95},{"label":"Chaudardes","id":"2171","longitude":3.78333,"latitude":49.3833,"avancement":7},{"label":"Remigny","id":"2639","longitude":3.28333,"latitude":49.7167,"avancement":84},{"label":"Mons-en-Laonnois","id":"2497","longitude":3.55334,"latitude":49.5373,"avancement":63},{"label":"Charly-sur-Marne","id":"2163","longitude":3.28528,"latitude":48.9773,"avancement":1},{"label":"Château-Thierry","id":"2168","longitude":3.4,"latitude":49.05,"avancement":97},{"label":"Eppes","id":"2282","longitude":3.73333,"latitude":49.55,"avancement":72},{"label":"Vauxrezis","id":"2767","longitude":3.28056,"latitude":49.4137,"avancement":46},{"label":"Châtillon-lès-Sons","id":"2169","longitude":3.68333,"latitude":49.75,"avancement":29},{"label":"Vivières","id":"2822","longitude":3.1,"latitude":49.3,"avancement":28},{"label":"Coyolles","id":"2232","longitude":3.05,"latitude":49.2333,"avancement":71},{"label":"Rozières-sur-Crise","id":"2663","longitude":3.35,"latitude":49.3333,"avancement":64},{"label":"Thenelles","id":"2741","longitude":3.46667,"latitude":49.8167,"avancement":8},{"label":"Nogentel","id":"2554","longitude":3.4,"latitude":49.0167,"avancement":61},{"label":"La Chapelle-sur-Chézy","id":"2162","longitude":3.38333,"latitude":48.95,"avancement":6},{"label":"Concevreux","id":"2208","longitude":3.78333,"latitude":49.3833,"avancement":93},{"label":"Grandrieux","id":"2354","longitude":4.18333,"latitude":49.7333,"avancement":17},{"label":"Origny-en-Thiérache","id":"2574","longitude":4.01667,"latitude":49.9,"avancement":14},{"label":"Achery","id":"2002","longitude":3.38333,"latitude":49.6833,"avancement":18},{"label":"Lesdins","id":"2420","longitude":3.33333,"latitude":49.9,"avancement":12},{"label":"Liez","id":"2431","longitude":3.28333,"latitude":49.6833,"avancement":19},{"label":"Haramont","id":"2368","longitude":3.05,"latitude":49.2833,"avancement":69},{"label":"Mennessis","id":"2474","longitude":3.26667,"latitude":49.7,"avancement":41},{"label":"Levergies","id":"2426","longitude":3.31667,"latitude":49.9333,"avancement":37},{"label":"Ollezy","id":"2570","longitude":3.13333,"latitude":49.7167,"avancement":77},{"label":"Colonfay","id":"2206","longitude":3.7,"latitude":49.85,"avancement":51},{"label":"Vauxbuin","id":"2770","longitude":3.3,"latitude":49.3667,"avancement":1},{"label":"La Vallée-Mulâtre","id":"2760","longitude":3.56667,"latitude":50.0167,"avancement":47},{"label":"Révillon","id":"2646","longitude":3.7,"latitude":49.3667,"avancement":99},{"label":"Watigny","id":"2831","longitude":4.2,"latitude":49.9,"avancement":56},{"label":"Grand-Verly","id":"2783","longitude":3.58333,"latitude":49.9333,"avancement":31},{"label":"Troësnes","id":"2749","longitude":3.16973,"latitude":49.1931,"avancement":34},{"label":"Nouvion-et-Catillon","id":"2559","longitude":3.48333,"latitude":49.7,"avancement":10},{"label":"Villers-Hélon","id":"2812","longitude":3.26667,"latitude":49.2667,"avancement":94},{"label":"Buironfosse","id":"2135","longitude":3.83333,"latitude":49.9667,"avancement":2},{"label":"Courchamps","id":"2225","longitude":3.26667,"latitude":49.1167,"avancement":71},{"label":"Noyant-et-Aconin","id":"2564","longitude":3.33333,"latitude":49.3333,"avancement":65},{"label":"Saint-Simon","id":"2694","longitude":3.16667,"latitude":49.75,"avancement":95},{"label":"Beautor","id":"2059","longitude":3.33333,"latitude":49.65,"avancement":50},{"label":"Presles-et-Thierny","id":"2621","longitude":3.61667,"latitude":49.5167,"avancement":5},{"label":"Monceau-lès-Leups","id":"2492","longitude":3.48333,"latitude":49.6667,"avancement":80},{"label":"Montcornet","id":"2502","longitude":4.01723,"latitude":49.6956,"avancement":40},{"label":"Viels-Maisons","id":"2798","longitude":3.4,"latitude":48.9,"avancement":85},{"label":"Marizy-Sainte-Geneviève","id":"2466","longitude":3.2,"latitude":49.1833,"avancement":24},{"label":"Autreppes","id":"2040","longitude":3.85,"latitude":49.9,"avancement":58},{"label":"Moÿ-de-l'Aisne","id":"2532","longitude":3.36667,"latitude":49.75,"avancement":11},{"label":"Any-Martin-Rieux","id":"2020","longitude":4.2165,"latitude":49.8833,"avancement":39},{"label":"Esquéhéries","id":"2286","longitude":3.75,"latitude":49.9833,"avancement":40},{"label":"Trosly-Loire","id":"2750","longitude":3.23333,"latitude":49.5167,"avancement":57},{"label":"Fayet","id":"2303","longitude":3.25,"latitude":49.8667,"avancement":42},{"label":"Harcigny","id":"2369","longitude":3.98333,"latitude":49.8,"avancement":55},{"label":"Itancourt","id":"2387","longitude":3.35,"latitude":49.8,"avancement":87},{"label":"Brie","id":"2122","longitude":3.4825,"latitude":49.6009,"avancement":37},{"label":"Hinacourt","id":"2380","longitude":3.28333,"latitude":49.7333,"avancement":59},{"label":"Latilly","id":"2411","longitude":3.31667,"latitude":49.15,"avancement":64},{"label":"Holnon","id":"2382","longitude":3.21667,"latitude":49.8667,"avancement":99},{"label":"Marchais","id":"2457","longitude":3.81667,"latitude":49.5833,"avancement":86},{"label":"Parpeville","id":"2592","longitude":3.55,"latitude":49.7667,"avancement":0},{"label":"Vic-sur-Aisne","id":"2795","longitude":3.11667,"latitude":49.4,"avancement":41},{"label":"Vigneux-Hocquet","id":"2801","longitude":3.98333,"latitude":49.7333,"avancement":88},{"label":"Vézaponin","id":"2793","longitude":3.23333,"latitude":49.4667,"avancement":10},{"label":"Braye-en-Thiérache","id":"2116","longitude":3.96667,"latitude":49.7833,"avancement":94},{"label":"Retheuil","id":"2644","longitude":3.01667,"latitude":49.3167,"avancement":94},{"label":"Fesmy-le-Sart","id":"2308","longitude":3.67834,"latitude":50.042,"avancement":41},{"label":"Corbeny","id":"2215","longitude":3.81667,"latitude":49.4667,"avancement":93},{"label":"Fluquières","id":"2317","longitude":3.15,"latitude":49.8,"avancement":80},{"label":"Pont-Saint-Mard","id":"2616","longitude":3.28333,"latitude":49.5,"avancement":28},{"label":"Montlevon","id":"2518","longitude":3.53333,"latitude":48.9667,"avancement":76},{"label":"Épagny","id":"2277","longitude":3.25,"latitude":49.4667,"avancement":53},{"label":"Vincy-Reuil-et-Magny","id":"2819","longitude":4.05,"latitude":49.7167,"avancement":14},{"label":"Montigny-sous-Marle","id":"2516","longitude":3.8,"latitude":49.75,"avancement":28},{"label":"Bois-lès-Pargny","id":"2096","longitude":3.65,"latitude":49.7167,"avancement":24},{"label":"Renneval","id":"2641","longitude":4.05,"latitude":49.7333,"avancement":69},{"label":"Travecy","id":"2746","longitude":3.35,"latitude":49.6833,"avancement":12},{"label":"Lesges","id":"2421","longitude":3.5,"latitude":49.3,"avancement":69},{"label":"Crécy-sur-Serre","id":"2237","longitude":3.61667,"latitude":49.7,"avancement":84},{"label":"La Selve","id":"2705","longitude":4,"latitude":49.5667,"avancement":89},{"label":"Neuville-Saint-Amand","id":"2549","longitude":3.33333,"latitude":49.8167,"avancement":45},{"label":"Bouresches","id":"2105","longitude":3.3,"latitude":49.0667,"avancement":84},{"label":"Beaumé","id":"2055","longitude":4.15,"latitude":49.8333,"avancement":76},{"label":"Le Nouvion-en-Thiérache","id":"2558","longitude":3.78333,"latitude":50.0167,"avancement":2},{"label":"Erlon","id":"2283","longitude":3.71667,"latitude":49.7167,"avancement":4},{"label":"Viry-Noureuil","id":"2820","longitude":3.25,"latitude":49.6333,"avancement":41},{"label":"Lizy","id":"2434","longitude":3.46667,"latitude":49.5167,"avancement":21},{"label":"Dravegny","id":"2271","longitude":3.63333,"latitude":49.2333,"avancement":32},{"label":"Suzy","id":"2733","longitude":3.46667,"latitude":49.55,"avancement":90},{"label":"Deuillet","id":"2262","longitude":3.35,"latitude":49.6333,"avancement":74},{"label":"Molinchart","id":"2489","longitude":3.53333,"latitude":49.5667,"avancement":96},{"label":"La Ville-aux-Bois-lès-Pontavert","id":"2803","longitude":3.84973,"latitude":49.4278,"avancement":4},{"label":"Arrancy","id":"2024","longitude":3.75,"latitude":49.4833,"avancement":68},{"label":"Saint-Christophe-à-Berry","id":"2673","longitude":3.13333,"latitude":49.4167,"avancement":51},{"label":"Gronard","id":"2357","longitude":3.88333,"latitude":49.7833,"avancement":0},{"label":"Crépy","id":"2238","longitude":3.51389,"latitude":49.6042,"avancement":98},{"label":"Bruyères-et-Montbérault","id":"2128","longitude":3.66667,"latitude":49.5167,"avancement":4},{"label":"Béthancourt-en-Vaux","id":"2081","longitude":3.15,"latitude":49.6167,"avancement":44},{"label":"Vauxaillon","id":"2768","longitude":3.4,"latitude":49.4833,"avancement":77},{"label":"Chartèves","id":"2166","longitude":3.5,"latitude":49.0833,"avancement":87},